ms_today;input_voltage;temp_mos_max;temp_mos_1;temp_mos_2;temp_mos_3;temp_motor;current_motor;current_in;d_axis_current;q_axis_current;erpm;duty_cycle;amp_hours_used;amp_hours_charged;watt_hours_used;watt_hours_charged;tachometer;tachometer_abs;encoder_position;fault_code;vesc_id;d_axis_voltage;q_axis_voltage;ms_today_setup;amp_hours_setup;amp_hours_charged_setup;watt_hours_setup;watt_hours_charged_setup;battery_level;battery_wh_tot;current_in_setup;current_motor_setup;speed_meters_per_sec;tacho_meters;tacho_abs_meters;num_vescs;ms_today_imu;roll;pitch;yaw;accX;accY;accZ;gyroX;gyroY;gyroZ;gnss_posTime;gnss_lat;gnss_lon;gnss_alt;gnss_gVel;gnss_vVel;gnss_hAcc;gnss_vAcc;
71642827;40.2;25.7;0;0;0;24.6;0.04;0;0;0;0;0;0;0;0;0;0;0;0;0;36;0;0;-1;0;0;0;0;0;0;0;0;0;0;0;0;-1;0;0;0;0;0;0;0;0;0;-1;0.00000000;0.00000000;0.00000000;0.00000000;0.00000000;0.00000000;0.00000000;
71642920;40.3;25.7;0;0;0;24.6;0.04;0;0;0;0;0;0;0;0;0;0;0;0;0;36;0;0;71642864;0;0;0;0;0.83;378.875;0;0.03;0;0;0;1;-1;0;0;0;0;0;0;0;0;0;-1;0.00000000;0.00000000;0.00000000;0.00000000;0.00000000;0.00000000;0.00000000;
71642983;40.3;25.7;0;0;0;24.6;0.04;0;0;0;0;0;0;0;0;0;0;0;0;0;36;0;0;71642950;0;0;0;0;0.828;377.735;0;0.03;0;0;0;1;-1;0;0;0;0;0;0;0;0;0;-1;0.00000000;0.00000000;0.00000000;0.00000000;0.00000000;0.00000000;0.00000000;
71643077;40.3;25.8;0;0;0;24.5;0.04;0;0;0;0;0;0;0;0;0;0;0;0;0;36;0;0;71643022;0;0;0;0;0.828;377.735;0;0.05;0;0;0;1;-1;0;0;0;0;0;0;0;0;0;-1;0.00000000;0.00000000;0.00000000;0.00000000;0.00000000;0.00000000;0.00000000;
71643139;40.3;25.7;0;0;0;24.5;0.04;0;0;0;0;0;0;0;0;0;0;0;0;0;36;0;0;71643107;0;0;0;0;0.833;380.012;0;0.05;0;0;0;1;-1;0;0;0;0;0;0;0;0;0;-1;0.00000000;0.00000000;0.00000000;0.00000000;0.00000000;0.00000000;0.00000000;
71643202;40.3;25.7;0;0;0;24.5;0.04;0;0;0;0;0;0;0;0;0;0;0;0;0;36;0;0;71643170;0;0;0;0;0.833;380.012;0;0.05;0;0;0;1;-1;0;0;0;0;0;0;0;0;0;-1;0.00000000;0.00000000;0.00000000;0.00000000;0.00000000;0.00000000;0.00000000;
71643264;40.3;25.7;0;0;0;24.5;0.04;0;0;0;0;0;0;0;0;0;0;0;0;0;36;0;0;71643233;0;0;0;0;0.838;382.275;0;0.03;0;0;0;1;-1;0;0;0;0;0;0;0;0;0;-1;0.00000000;0.00000000;0.00000000;0.00000000;0.00000000;0.00000000;0.00000000;
71643358;40.2;25.8;0;0;0;24.5;0.04;0;0;0;0;0;0;0;0;0;0;0;0;0;36;0;0;71643297;0;0;0;0;0.83;378.875;0;0.04;0;0;0;1;-1;0;0;0;0;0;0;0;0;0;-1;0.00000000;0.00000000;0.00000000;0.00000000;0.00000000;0.00000000;0.00000000;
71643421;40.2;25.7;0;0;0;24.5;0.04;0;0;0;0;0;0;0;0;0;0;0;0;0;36;0;0;71643388;0;0;0;0;0.825;376.591;0;0.03;0;0;0;1;-1;0;0;0;0;0;0;0;0;0;-1;0.00000000;0.00000000;0.00000000;0.00000000;0.00000000;0.00000000;0.00000000;
71643483;40.3;25.7;0;0;0;24.5;0.04;0;0;0;0;0;0;0;0;0;0;0;0;0;36;0;0;71643452;0;0;0;0;0.843;384.522;0;0.03;0;0;0;1;-1;0;0;0;0;0;0;0;0;0;-1;0.00000000;0.00000000;0.00000000;0.00000000;0.00000000;0.00000000;0.00000000;
71643577;40.3;25.8;0;0;0;24.5;0.04;0;0;0;0;0;0;0;0;0;0;0;0;0;36;0;0;71643517;0;0;0;0;0.845;385.64;0;0.05;0;0;0;1;-1;0;0;0;0;0;0;0;0;0;-1;0.00000000;0.00000000;0.00000000;0.00000000;0.00000000;0.00000000;0.00000000;
71643640;40.3;25.7;0;0;0;24.6;0.04;0;0;0;0;0;0;0;0;0;0;0;0;0;36;0;0;71643607;0;0;0;0;0.823;375.444;0;0.05;0;0;0;1;-1;0;0;0;0;0;0;0;0;0;-1;0.00000000;0.00000000;0.00000000;0.00000000;0.00000000;0.00000000;0.00000000;
71643702;40.3;25.7;0;0;0;24.6;0.04;0;0;0;0;0;0;0;0;0;0;0;0;0;36;0;0;71643671;0;0;0;0;0.83;378.875;0;0.04;0;0;0;1;-1;0;0;0;0;0;0;0;0;0;-1;0.00000000;0.00000000;0.00000000;0.00000000;0.00000000;0.00000000;0.00000000;
71643764;40.3;25.8;0;0;0;24.6;0.04;0;0;0;0;0;0;0;0;0;0;0;0;0;36;0;0;71643739;0;0;0;0;0.828;377.735;0;0.04;0;0;0;1;-1;0;0;0;0;0;0;0;0;0;-1;0.00000000;0.00000000;0.00000000;0.00000000;0.00000000;0.00000000;0.00000000;
71643858;40.3;25.7;0;0;0;24.6;0.04;0;0;0;0;0;0;0;0;0;0;0;0;0;36;0;0;71643796;0;0;0;0;0.83;378.875;0;0.04;0;0;0;1;-1;0;0;0;0;0;0;0;0;0;-1;0.00000000;0.00000000;0.00000000;0.00000000;0.00000000;0.00000000;0.00000000;
71643921;40.3;25.7;0;0;0;24.6;0.04;0;0;0;0;0;0;0;0;0;0;0;0;0;36;0;0;71643888;0;0;0;0;0.828;377.735;0;0.02;0;0;0;1;-1;0;0;0;0;0;0;0;0;0;-1;0.00000000;0.00000000;0.00000000;0.00000000;0.00000000;0.00000000;0.00000000;
71643983;40.3;25.7;0;0;0;24.6;0.04;0;0;0;0;0;0;0;0;0;0;0;0;0;36;0;0;71643952;0;0;0;0;0.828;377.735;0;0.03;0;0;0;1;-1;0;0;0;0;0;0;0;0;0;-1;0.00000000;0.00000000;0.00000000;0.00000000;0.00000000;0.00000000;0.00000000;
71644077;40.3;25.7;0;0;0;24.6;0.04;0;0;0;0;0;0;0;0;0;0;0;0;0;36;0;0;71644019;0;0;0;0;0.84;383.4;0;0.04;0;0;0;1;-1;0;0;0;0;0;0;0;0;0;-1;0.00000000;0.00000000;0.00000000;0.00000000;0.00000000;0.00000000;0.00000000;
71644140;40.2;25.7;0;0;0;24.6;0.04;0;0;0;0;0;0;0;0;0;0;0;0;0;36;0;0;71644107;0;0;0;0;0.83;378.875;0;0.04;0;0;0;1;-1;0;0;0;0;0;0;0;0;0;-1;0.00000000;0.00000000;0.00000000;0.00000000;0.00000000;0.00000000;0.00000000;
71644202;40.3;25.7;0;0;0;24.6;0.04;0;0;0;0;0;0;0;0;0;0;0;0;0;36;0;0;71644171;0;0;0;0;0.828;377.735;0;0.04;0;0;0;1;-1;0;0;0;0;0;0;0;0;0;-1;0.00000000;0.00000000;0.00000000;0.00000000;0.00000000;0.00000000;0.00000000;
71644265;40.2;25.7;0;0;0;24.6;0.04;0;0;0;0;0;0;0;0;0;0;0;0;0;36;0;0;71644233;0;0;0;0;0.828;377.735;0;0.06;0;0;0;1;-1;0;0;0;0;0;0;0;0;0;-1;0.00000000;0.00000000;0.00000000;0.00000000;0.00000000;0.00000000;0.00000000;
71644358;40.3;25.7;0;0;0;24.6;0.04;0;0;0;0;0;0;0;0;0;0;0;0;0;36;0;0;71644299;0;0;0;0;0.828;377.735;0;0.04;0;0;0;1;-1;0;0;0;0;0;0;0;0;0;-1;0.00000000;0.00000000;0.00000000;0.00000000;0.00000000;0.00000000;0.00000000;
71644421;40.2;25.7;0;0;0;24.6;0.04;0;0;0;0;0;0;0;0;0;0;0;0;0;36;0;0;71644388;0;0;0;0;0.813;370.825;0;0.02;0;0;0;1;-1;0;0;0;0;0;0;0;0;0;-1;0.00000000;0.00000000;0.00000000;0.00000000;0.00000000;0.00000000;0.00000000;
71644483;40.3;25.7;0;0;0;24.6;0.04;0;0;0;0;0;0;0;0;0;0;0;0;0;36;0;0;71644452;0;0;0;0;0.845;385.64;0;0.04;0;0;0;1;-1;0;0;0;0;0;0;0;0;0;-1;0.00000000;0.00000000;0.00000000;0.00000000;0.00000000;0.00000000;0.00000000;
71644577;40.3;25.7;0;0;0;24.6;0.04;0;0;0;0;0;0;0;0;0;0;0;0;0;36;0;0;71644519;0;0;0;0;0.838;382.275;0;0.03;0;0;0;1;-1;0;0;0;0;0;0;0;0;0;-1;0.00000000;0.00000000;0.00000000;0.00000000;0.00000000;0.00000000;0.00000000;
71644640;40.3;25.7;0;0;0;24.6;0.04;0;0;0;0;0;0;0;0;0;0;0;0;0;36;0;0;71644607;0;0;0;0;0.833;380.012;0;0.03;0;0;0;1;-1;0;0;0;0;0;0;0;0;0;-1;0.00000000;0.00000000;0.00000000;0.00000000;0.00000000;0.00000000;0.00000000;
71644702;40.3;25.7;0;0;0;24.6;0.04;0;0;0;0;0;0;0;0;0;0;0;0;0;36;0;0;71644671;0;0;0;0;0.825;376.591;0;0.04;0;0;0;1;-1;0;0;0;0;0;0;0;0;0;-1;0.00000000;0.00000000;0.00000000;0.00000000;0.00000000;0.00000000;0.00000000;
71644765;40.3;25.7;0;0;0;24.6;0.04;0;0;0;0;0;0;0;0;0;0;0;0;0;36;0;0;71644733;0;0;0;0;0.835;381.145;0;0.03;0;0;0;1;-1;0;0;0;0;0;0;0;0;0;-1;0.00000000;0.00000000;0.00000000;0.00000000;0.00000000;0.00000000;0.00000000;
71644858;40.2;25.7;0;0;0;24.6;0.04;0;0;0;0;0;0;0;0;0;0;0;0;0;36;0;0;71644798;0;0;0;0;0.833;380.012;0;0.04;0;0;0;1;-1;0;0;0;0;0;0;0;0;0;-1;0.00000000;0.00000000;0.00000000;0.00000000;0.00000000;0.00000000;0.00000000;
71644921;40.3;25.7;0;0;0;24.6;0.04;0;0;0;0;0;0;0;0;0;0;0;0;0;36;0;0;71644888;0;0;0;0;0.825;376.591;0;0.04;0;0;0;1;-1;0;0;0;0;0;0;0;0;0;-1;0.00000000;0.00000000;0.00000000;0.00000000;0.00000000;0.00000000;0.00000000;
71644983;40.2;25.7;0;0;0;24.6;0.07;0;0;0;0;0;0;0;0;0;0;0;0;0;36;0;0;71644952;0;0;0;0;0.828;377.735;0;0.05;0;0;0;1;-1;0;0;0;0;0;0;0;0;0;-1;0.00000000;0.00000000;0.00000000;0.00000000;0.00000000;0.00000000;0.00000000;
71645077;40.2;25.8;0;0;0;24.6;0.05;0;0;0;0;0;0;0;0;0;0;0;0;0;36;0;0;71645019;0;0;0;0;0.83;378.875;0;0.04;0;0;0;1;-1;0;0;0;0;0;0;0;0;0;-1;0.00000000;0.00000000;0.00000000;0.00000000;0.00000000;0.00000000;0.00000000;
71645139;40.3;25.7;0;0;0;24.6;0.04;0;0;0;0;0;0;0;0;0;0;0;0;0;36;0;0;71645107;0;0;0;0;0.838;382.275;0;0.03;0;0;0;1;-1;0;0;0;0;0;0;0;0;0;-1;0.00000000;0.00000000;0.00000000;0.00000000;0.00000000;0.00000000;0.00000000;
71645202;40.4;25.7;0;0;0;24.6;0.04;0;0;0;0;0;0;0;0;0;0;0;0;0;36;0;0;71645171;0;0;0;0;0.825;376.591;0;0.03;0;0;0;1;-1;0;0;0;0;0;0;0;0;0;-1;0.00000000;0.00000000;0.00000000;0.00000000;0.00000000;0.00000000;0.00000000;
71645264;40.3;25.7;0;0;0;24.6;0.04;0;0;0;0;0;0;0;0;0;0;0;0;0;36;0;0;71645233;0;0;0;0;0.825;376.591;0;0.04;0;0;0;1;-1;0;0;0;0;0;0;0;0;0;-1;0.00000000;0.00000000;0.00000000;0.00000000;0.00000000;0.00000000;0.00000000;
71645358;40.3;25.7;0;0;0;24.6;0.04;0;0;0;0;0;0;0;0;0;0;0;0;0;36;0;0;71645297;0;0;0;0;0.835;381.145;0;0.03;0;0;0;1;-1;0;0;0;0;0;0;0;0;0;-1;0.00000000;0.00000000;0.00000000;0.00000000;0.00000000;0.00000000;0.00000000;
71645421;40.3;25.8;0;0;0;24.5;0.04;0;0;0;0;0;0;0;0;0;0;0;0;0;36;0;0;71645388;0;0;0;0;0.84;383.4;0;0.04;0;0;0;1;-1;0;0;0;0;0;0;0;0;0;-1;0.00000000;0.00000000;0.00000000;0.00000000;0.00000000;0.00000000;0.00000000;
71645483;40.3;25.7;0;0;0;24.6;0.04;0;0;0;0;0;0;0;0;0;0;0;0;0;36;0;0;71645452;0;0;0;0;0.825;376.591;0;0.06;0;0;0;1;-1;0;0;0;0;0;0;0;0;0;-1;0.00000000;0.00000000;0.00000000;0.00000000;0.00000000;0.00000000;0.00000000;
71645577;40.3;25.7;0;0;0;24.6;0.04;0;0;0;0;0;0;0;0;0;0;0;0;0;36;0;0;71645517;0;0;0;0;0.835;381.145;0;0.04;0;0;0;1;-1;0;0;0;0;0;0;0;0;0;-1;0.00000000;0.00000000;0.00000000;0.00000000;0.00000000;0.00000000;0.00000000;
71645640;40.3;25.7;0;0;0;24.6;0.06;0;0;0;0;0;0;0;0;0;0;0;0;0;36;0;0;71645607;0;0;0;0;0.828;377.735;0;0.05;0;0;0;1;-1;0;0;0;0;0;0;0;0;0;-1;0.00000000;0.00000000;0.00000000;0.00000000;0.00000000;0.00000000;0.00000000;
71645702;40.2;25.7;0;0;0;24.6;0.05;0;0;0;0;0;0;0;0;0;0;0;0;0;36;0;0;71645671;0;0;0;0;0.838;382.275;0;0.04;0;0;0;1;-1;0;0;0;0;0;0;0;0;0;-1;0.00000000;0.00000000;0.00000000;0.00000000;0.00000000;0.00000000;0.00000000;
71645765;40.2;25.7;0;0;0;24.6;0.04;0;0;0;0;0;0;0;0;0;0;0;0;0;36;0;0;71645733;0;0;0;0;0.825;376.591;0;0.03;0;0;0;1;-1;0;0;0;0;0;0;0;0;0;-1;0.00000000;0.00000000;0.00000000;0.00000000;0.00000000;0.00000000;0.00000000;
71645858;40.2;25.7;0;0;0;24.6;0.04;0;0;0;0;0;0;0;0;0;0;0;0;0;36;0;0;71645801;0;0;0;0;0.83;378.875;0;0.03;0;0;0;1;-1;0;0;0;0;0;0;0;0;0;-1;0.00000000;0.00000000;0.00000000;0.00000000;0.00000000;0.00000000;0.00000000;
71645921;40.2;25.7;0;0;0;24.6;0.05;0;0;0;0;0;0;0;0;0;0;0;0;0;36;0;0;71645888;0;0;0;0;0.833;380.012;0;0.05;0;0;0;1;-1;0;0;0;0;0;0;0;0;0;-1;0.00000000;0.00000000;0.00000000;0.00000000;0.00000000;0.00000000;0.00000000;
71645983;40.3;25.7;0;0;0;24.6;0.05;0;0;0;0;0;0;0;0;0;0;0;0;0;36;0;0;71645952;0;0;0;0;0.84;383.4;0;0.03;0;0;0;1;-1;0;0;0;0;0;0;0;0;0;-1;0.00000000;0.00000000;0.00000000;0.00000000;0.00000000;0.00000000;0.00000000;
71646077;40.3;25.7;0;0;0;24.6;0.04;0;0;0;0;0;0;0;0;0;0;0;0;0;36;0;0;71646018;0;0;0;0;0.83;378.875;0;0.05;0;0;0;1;-1;0;0;0;0;0;0;0;0;0;-1;0.00000000;0.00000000;0.00000000;0.00000000;0.00000000;0.00000000;0.00000000;
71646139;40.2;25.7;0;0;0;24.5;0.04;0;0;0;0;0;0;0;0;0;0;0;0;0;36;0;0;71646108;0;0;0;0;0.83;378.875;0;0.04;0;0;0;1;-1;0;0;0;0;0;0;0;0;0;-1;0.00000000;0.00000000;0.00000000;0.00000000;0.00000000;0.00000000;0.00000000;
71646202;40.4;25.7;0;0;0;24.6;0.04;0;0;0;0;0;0;0;0;0;0;0;0;0;36;0;0;71646171;0;0;0;0;0.835;381.145;0;0.04;0;0;0;1;-1;0;0;0;0;0;0;0;0;0;-1;0.00000000;0.00000000;0.00000000;0.00000000;0.00000000;0.00000000;0.00000000;
71646264;40.3;25.7;0;0;0;24.6;0.04;0;0;0;0;0;0;0;0;0;0;0;0;0;36;0;0;71646233;0;0;0;0;0.835;381.145;0;0.04;0;0;0;1;-1;0;0;0;0;0;0;0;0;0;-1;0.00000000;0.00000000;0.00000000;0.00000000;0.00000000;0.00000000;0.00000000;
71646358;40.3;25.7;0;0;0;24.6;0.04;0;0;0;0;0;0;0;0;0;0;0;0;0;36;0;0;71646299;0;0;0;0;0.835;381.145;0;0.04;0;0;0;1;-1;0;0;0;0;0;0;0;0;0;-1;0.00000000;0.00000000;0.00000000;0.00000000;0.00000000;0.00000000;0.00000000;
71646421;40.2;25.7;0;0;0;24.6;0.05;0;0;0;0;0;0;0;0;0;0;0;0;0;36;0;0;71646388;0;0;0;0;0.825;376.591;0;0.03;0;0;0;1;-1;0;0;0;0;0;0;0;0;0;-1;0.00000000;0.00000000;0.00000000;0.00000000;0.00000000;0.00000000;0.00000000;
71646513;40.3;25.7;0;0;0;24.6;0.06;0;0;0;0;0;0;0;0;0;0;0;0;0;36;0;0;71646452;0;0;0;0;0.84;383.4;0;0.04;0;0;0;1;-1;0;0;0;0;0;0;0;0;0;-1;0.00000000;0.00000000;0.00000000;0.00000000;0.00000000;0.00000000;0.00000000;
71646577;40.2;25.7;0;0;0;24.6;0.04;0;0;0;0;0;0;0;0;0;0;0;0;0;36;0;0;71646543;0;0;0;0;0.835;381.145;0;0.04;0;0;0;1;-1;0;0;0;0;0;0;0;0;0;-1;0.00000000;0.00000000;0.00000000;0.00000000;0.00000000;0.00000000;0.00000000;
71646639;40.3;25.8;0;0;0;24.6;0.04;0;0;0;0;0;0;0;0;0;0;0;0;0;36;0;0;71646608;0;0;0;0;0.83;378.875;0;0.04;0;0;0;1;-1;0;0;0;0;0;0;0;0;0;-1;0.00000000;0.00000000;0.00000000;0.00000000;0.00000000;0.00000000;0.00000000;
71646702;40.3;25.7;0;0;0;24.6;0.04;0;0;0;0;0;0;0;0;0;0;0;0;0;36;0;0;71646670;0;0;0;0;0.828;377.735;0;0.03;0;0;0;1;-1;0;0;0;0;0;0;0;0;0;-1;0.00000000;0.00000000;0.00000000;0.00000000;0.00000000;0.00000000;0.00000000;
71646764;40.3;25.7;0;0;0;24.6;0.04;0;0;0;0;0;0;0;0;0;0;0;0;0;36;0;0;71646733;0;0;0;0;0.835;381.145;0;0.04;0;0;0;1;-1;0;0;0;0;0;0;0;0;0;-1;0.00000000;0.00000000;0.00000000;0.00000000;0.00000000;0.00000000;0.00000000;
71646858;40.3;25.7;0;0;0;24.6;0.04;0;0;0;0;0;0;0;0;0;0;0;0;0;36;0;0;71646801;0;0;0;0;0.828;377.735;0;0.04;0;0;0;1;-1;0;0;0;0;0;0;0;0;0;-1;0.00000000;0.00000000;0.00000000;0.00000000;0.00000000;0.00000000;0.00000000;
71646921;40.3;25.7;0;0;0;24.6;0.04;0;0;0;0;0;0;0;0;0;0;0;0;0;36;0;0;71646888;0;0;0;0;0.825;376.591;0;0.04;0;0;0;1;-1;0;0;0;0;0;0;0;0;0;-1;0.00000000;0.00000000;0.00000000;0.00000000;0.00000000;0.00000000;0.00000000;
71646983;40.3;25.7;0;0;0;24.6;0.04;0;0;0;0;0;0;0;0;0;0;0;0;0;36;0;0;71646952;0;0;0;0;0.83;378.875;0;0.05;0;0;0;1;-1;0;0;0;0;0;0;0;0;0;-1;0.00000000;0.00000000;0.00000000;0.00000000;0.00000000;0.00000000;0.00000000;
71647077;40.2;25.7;0;0;0;24.6;0.04;0;0;0;0;0;0;0;0;0;0;0;0;0;36;0;0;71647018;0;0;0;0;0.838;382.275;0;0.03;0;0;0;1;-1;0;0;0;0;0;0;0;0;0;-1;0.00000000;0.00000000;0.00000000;0.00000000;0.00000000;0.00000000;0.00000000;
71647139;40.3;25.7;0;0;0;24.6;0.04;0;0;0;0;0;0;0;0;0;0;0;0;0;36;0;0;71647107;0;0;0;0;0.828;377.735;0;0.03;0;0;0;1;-1;0;0;0;0;0;0;0;0;0;-1;0.00000000;0.00000000;0.00000000;0.00000000;0.00000000;0.00000000;0.00000000;
71647202;40.4;25.7;0;0;0;24.6;0.04;0;0;0;0;0;0;0;0;0;0;0;0;0;36;0;0;71647170;0;0;0;0;0.838;382.275;0;0.05;0;0;0;1;-1;0;0;0;0;0;0;0;0;0;-1;0.00000000;0.00000000;0.00000000;0.00000000;0.00000000;0.00000000;0.00000000;
71647264;40.3;25.8;0;0;0;24.6;0.05;0;0;0;0;0;0;0;0;0;0;0;0;0;36;0;0;71647233;0;0;0;0;0.84;383.4;0;0.04;0;0;0;1;-1;0;0;0;0;0;0;0;0;0;-1;0.00000000;0.00000000;0.00000000;0.00000000;0.00000000;0.00000000;0.00000000;
71647358;40.3;25.7;0;0;0;24.6;0.04;0;0;0;0;0;0;0;0;0;0;0;0;0;36;0;0;71647301;0;0;0;0;0.835;381.145;0;0.03;0;0;0;1;-1;0;0;0;0;0;0;0;0;0;-1;0.00000000;0.00000000;0.00000000;0.00000000;0.00000000;0.00000000;0.00000000;
71647421;40.2;25.7;0;0;0;24.6;0.04;0;0;0;0;0;0;0;0;0;0;0;0;0;36;0;0;71647395;0;0;0;0;0.828;377.735;0;0.04;0;0;0;1;-1;0;0;0;0;0;0;0;0;0;-1;0.00000000;0.00000000;0.00000000;0.00000000;0.00000000;0.00000000;0.00000000;
71647483;40.3;25.7;0;0;0;24.6;0.04;0;0;0;0;0;0;0;0;0;0;0;0;0;36;0;0;71647452;0;0;0;0;0.838;382.275;0;0.05;0;0;0;1;-1;0;0;0;0;0;0;0;0;0;-1;0.00000000;0.00000000;0.00000000;0.00000000;0.00000000;0.00000000;0.00000000;
71647577;40.3;25.7;0;0;0;24.6;0.04;0;0;0;0;0;0;0;0;0;0;0;0;0;36;0;0;71647519;0;0;0;0;0.835;381.145;0;0.03;0;0;0;1;-1;0;0;0;0;0;0;0;0;0;-1;0.00000000;0.00000000;0.00000000;0.00000000;0.00000000;0.00000000;0.00000000;
71647639;40.3;25.7;0;0;0;24.6;0.04;0;0;0;0;0;0;0;0;0;0;0;0;0;36;0;0;71647607;0;0;0;0;0.835;381.145;0;0.04;0;0;0;1;-1;0;0;0;0;0;0;0;0;0;-1;0.00000000;0.00000000;0.00000000;0.00000000;0.00000000;0.00000000;0.00000000;
71647702;40.2;25.7;0;0;0;24.6;0.04;0;0;0;0;0;0;0;0;0;0;0;0;0;36;0;0;71647671;0;0;0;0;0.83;378.875;0;0.04;0;0;0;1;-1;0;0;0;0;0;0;0;0;0;-1;0.00000000;0.00000000;0.00000000;0.00000000;0.00000000;0.00000000;0.00000000;
71647794;40.1;25.7;0;0;0;24.6;0.04;0;0;0;0;0;0;0;0;0;0;0;0;0;36;0;0;71647733;0;0;0;0;0.8;364.988;0;0.02;0;0;0;1;-1;0;0;0;0;0;0;0;0;0;-1;0.00000000;0.00000000;0.00000000;0.00000000;0.00000000;0.00000000;0.00000000;
71647858;40.3;25.7;0;0;0;24.6;0.04;0;0;0;0;0;0;0;0;0;0;0;0;0;36;0;0;71647824;0;0;0;0;0.82;374.294;0;0.05;0;0;0;1;-1;0;0;0;0;0;0;0;0;0;-1;0.00000000;0.00000000;0.00000000;0.00000000;0.00000000;0.00000000;0.00000000;
71647921;40.3;25.7;0;0;0;24.6;0.04;0;0;0;0;0;0;0;0;0;0;0;0;0;36;0;0;71647896;0;0;0;0;0.823;375.444;0;0.04;0;0;0;1;-1;0;0;0;0;0;0;0;0;0;-1;0.00000000;0.00000000;0.00000000;0.00000000;0.00000000;0.00000000;0.00000000;
71647983;40.2;25.7;0;0;0;24.6;0.04;0;0;0;0;0;0;0;0;0;0;0;0;0;36;0;0;71647952;0;0;0;0;0.82;374.294;0;0.03;0;0;0;1;-1;0;0;0;0;0;0;0;0;0;-1;0.00000000;0.00000000;0.00000000;0.00000000;0.00000000;0.00000000;0.00000000;
71648077;40.3;25.7;0;0;0;24.6;0.04;0;0;0;0;0;0;0;0;0;0;0;0;0;36;0;0;71648018;0;0;0;0;0.838;382.275;0;0.03;0;0;0;1;-1;0;0;0;0;0;0;0;0;0;-1;0.00000000;0.00000000;0.00000000;0.00000000;0.00000000;0.00000000;0.00000000;
71648139;40.3;25.7;0;0;0;24.6;0.04;0;0;0;0;0;0;0;0;0;0;0;0;0;36;0;0;71648107;0;0;0;0;0.828;377.735;0;0.04;0;0;0;1;-1;0;0;0;0;0;0;0;0;0;-1;0.00000000;0.00000000;0.00000000;0.00000000;0.00000000;0.00000000;0.00000000;
71648202;40.3;25.7;0;0;0;24.6;0.04;0;0;0;0;0;0;0;0;0;0;0;0;0;36;0;0;71648170;0;0;0;0;0.83;378.875;0;0.04;0;0;0;1;-1;0;0;0;0;0;0;0;0;0;-1;0.00000000;0.00000000;0.00000000;0.00000000;0.00000000;0.00000000;0.00000000;
71648264;40.3;25.7;0;0;0;24.6;0.04;0;0;0;0;0;0;0;0;0;0;0;0;0;36;0;0;71648233;0;0;0;0;0.838;382.275;0;0.05;0;0;0;1;-1;0;0;0;0;0;0;0;0;0;-1;0.00000000;0.00000000;0.00000000;0.00000000;0.00000000;0.00000000;0.00000000;
71648358;40.3;25.7;0;0;0;24.6;0.04;0;0;0;0;0;0;0;0;0;0;0;0;0;36;0;0;71648300;0;0;0;0;0.833;380.012;0;0.04;0;0;0;1;-1;0;0;0;0;0;0;0;0;0;-1;0.00000000;0.00000000;0.00000000;0.00000000;0.00000000;0.00000000;0.00000000;
71648421;40.3;25.8;0;0;0;24.6;0.04;0;0;0;0;0;0;0;0;0;0;0;0;0;36;0;0;71648388;0;0;0;0;0.835;381.145;0;0.04;0;0;0;1;-1;0;0;0;0;0;0;0;0;0;-1;0.00000000;0.00000000;0.00000000;0.00000000;0.00000000;0.00000000;0.00000000;
71648483;40.3;25.7;0;0;0;24.6;0.04;0;0;0;0;0;0;0;0;0;0;0;0;0;36;0;0;71648452;0;0;0;0;0.833;380.012;0;0.04;0;0;0;1;-1;0;0;0;0;0;0;0;0;0;-1;0.00000000;0.00000000;0.00000000;0.00000000;0.00000000;0.00000000;0.00000000;
71648577;40.3;25.7;0;0;0;24.6;0.04;0;0;0;0;0;0;0;0;0;0;0;0;0;36;0;0;71648518;0;0;0;0;0.833;380.012;0;0.03;0;0;0;1;-1;0;0;0;0;0;0;0;0;0;-1;0.00000000;0.00000000;0.00000000;0.00000000;0.00000000;0.00000000;0.00000000;
71648639;40.3;25.7;0;0;0;24.6;0.04;0;0;0;0;0;0;0;0;0;0;0;0;0;36;0;0;71648607;0;0;0;0;0.808;368.498;0;0.05;0;0;0;1;-1;0;0;0;0;0;0;0;0;0;-1;0.00000000;0.00000000;0.00000000;0.00000000;0.00000000;0.00000000;0.00000000;
71648702;40.3;25.8;0;0;0;24.6;0.04;0;0;0;0;0;0;0;0;0;0;0;0;0;36;0;0;71648670;0;0;0;0;0.835;381.145;0;0.05;0;0;0;1;-1;0;0;0;0;0;0;0;0;0;-1;0.00000000;0.00000000;0.00000000;0.00000000;0.00000000;0.00000000;0.00000000;
71648764;40.2;25.7;0;0;0;24.6;0.04;0;0;0;0;0;0;0;0;0;0;0;0;0;36;0;0;71648733;0;0;0;0;0.825;376.591;0;0.03;0;0;0;1;-1;0;0;0;0;0;0;0;0;0;-1;0.00000000;0.00000000;0.00000000;0.00000000;0.00000000;0.00000000;0.00000000;
71648858;40.2;25.7;0;0;0;24.6;0.04;0;0;0;0;0;0;0;0;0;0;0;0;0;36;0;0;71648800;0;0;0;0;0.83;378.875;0;0.04;0;0;0;1;-1;0;0;0;0;0;0;0;0;0;-1;0.00000000;0.00000000;0.00000000;0.00000000;0.00000000;0.00000000;0.00000000;
71648921;40.2;25.7;0;0;0;24.6;0.04;0;0;0;0;0;0;0;0;0;0;0;0;0;36;0;0;71648888;0;0;0;0;0.823;375.444;0;0.04;0;0;0;1;-1;0;0;0;0;0;0;0;0;0;-1;0.00000000;0.00000000;0.00000000;0.00000000;0.00000000;0.00000000;0.00000000;
71648983;40.3;25.8;0;0;0;24.6;0.04;0;0;0;0;0;0;0;0;0;0;0;0;0;36;0;0;71648952;0;0;0;0;0.833;380.012;0;0.03;0;0;0;1;-1;0;0;0;0;0;0;0;0;0;-1;0.00000000;0.00000000;0.00000000;0.00000000;0.00000000;0.00000000;0.00000000;
71649077;40.2;25.7;0;0;0;24.6;0.04;0;0;0;0;0;0;0;0;0;0;0;0;0;36;0;0;71649021;0;0;0;0;0.828;377.735;0;0.05;0;0;0;1;-1;0;0;0;0;0;0;0;0;0;-1;0.00000000;0.00000000;0.00000000;0.00000000;0.00000000;0.00000000;0.00000000;
71649140;40.2;25.7;0;0;0;24.6;0.04;0;0;0;0;0;0;0;0;0;0;0;0;0;36;0;0;71649137;0;0;0;0;0.823;375.444;0;0.03;0;0;0;1;-1;0;0;0;0;0;0;0;0;0;-1;0.00000000;0.00000000;0.00000000;0.00000000;0.00000000;0.00000000;0.00000000;
71649202;40.3;25.7;0;0;0;24.6;0.04;0;0;0;0;0;0;0;0;0;0;0;0;0;36;0;0;71649137;0;0;0;0;0.823;375.444;0;0.03;0;0;0;1;-1;0;0;0;0;0;0;0;0;0;-1;0.00000000;0.00000000;0.00000000;0.00000000;0.00000000;0.00000000;0.00000000;
71649264;40.2;25.8;0;0;0;24.6;0.04;0;0;0;0;0;0;0;0;0;0;0;0;0;36;0;0;71649232;0;0;0;0;0.848;386.754;0;0.04;0;0;0;1;-1;0;0;0;0;0;0;0;0;0;-1;0.00000000;0.00000000;0.00000000;0.00000000;0.00000000;0.00000000;0.00000000;
71649358;40.3;25.7;0;0;0;24.6;0.04;0;0;0;0;0;0;0;0;0;0;0;0;0;36;0;0;71649302;0;0;0;0;0.84;383.4;0;0.03;0;0;0;1;-1;0;0;0;0;0;0;0;0;0;-1;0.00000000;0.00000000;0.00000000;0.00000000;0.00000000;0.00000000;0.00000000;
71649421;40.3;25.7;0;0;0;24.6;0.04;0;0;0;0;0;0;0;0;0;0;0;0;0;36;0;0;71649388;0;0;0;0;0.828;377.735;0;0.04;0;0;0;1;-1;0;0;0;0;0;0;0;0;0;-1;0.00000000;0.00000000;0.00000000;0.00000000;0.00000000;0.00000000;0.00000000;
71649483;40.2;25.7;0;0;0;24.6;0.04;0;0;0;0;0;0;0;0;0;0;0;0;0;36;0;0;71649452;0;0;0;0;0.838;382.275;0;0.04;0;0;0;1;-1;0;0;0;0;0;0;0;0;0;-1;0.00000000;0.00000000;0.00000000;0.00000000;0.00000000;0.00000000;0.00000000;
71649577;40.3;25.7;0;0;0;24.6;0.04;0;0;0;0;0;0;0;0;0;0;0;0;0;36;0;0;71649518;0;0;0;0;0.835;381.145;0;0.04;0;0;0;1;-1;0;0;0;0;0;0;0;0;0;-1;0.00000000;0.00000000;0.00000000;0.00000000;0.00000000;0.00000000;0.00000000;
71649639;40.3;25.7;0;0;0;24.6;0.04;0;0;0;0;0;0;0;0;0;0;0;0;0;36;0;0;71649607;0;0;0;0;0.818;373.141;0;0.02;0;0;0;1;-1;0;0;0;0;0;0;0;0;0;-1;0.00000000;0.00000000;0.00000000;0.00000000;0.00000000;0.00000000;0.00000000;
71649702;40.3;25.7;0;0;0;24.6;0.04;0;0;0;0;0;0;0;0;0;0;0;0;0;36;0;0;71649670;0;0;0;0;0.843;384.522;0;0.04;0;0;0;1;-1;0;0;0;0;0;0;0;0;0;-1;0.00000000;0.00000000;0.00000000;0.00000000;0.00000000;0.00000000;0.00000000;
71649764;40.2;25.7;0;0;0;24.6;0.04;0;0;0;0;0;0;0;0;0;0;0;0;0;36;0;0;71649733;0;0;0;0;0.83;378.875;0;0.04;0;0;0;1;-1;0;0;0;0;0;0;0;0;0;-1;0.00000000;0.00000000;0.00000000;0.00000000;0.00000000;0.00000000;0.00000000;
71649858;40.3;25.7;0;0;0;24.6;0.04;0;0;0;0;0;0;0;0;0;0;0;0;0;36;0;0;71649800;0;0;0;0;0.835;381.145;0;0.04;0;0;0;1;-1;0;0;0;0;0;0;0;0;0;-1;0.00000000;0.00000000;0.00000000;0.00000000;0.00000000;0.00000000;0.00000000;
71649921;40.3;25.7;0;0;0;24.6;0.04;0;0;0;0;0;0;0;0;0;0;0;0;0;36;0;0;71649889;0;0;0;0;0.835;381.145;0;0.04;0;0;0;1;-1;0;0;0;0;0;0;0;0;0;-1;0.00000000;0.00000000;0.00000000;0.00000000;0.00000000;0.00000000;0.00000000;
71649983;40.2;25.7;0;0;0;24.6;0.04;0;0;0;0;0;0;0;0;0;0;0;0;0;36;0;0;71649952;0;0;0;0;0.83;378.875;0;0.04;0;0;0;1;-1;0;0;0;0;0;0;0;0;0;-1;0.00000000;0.00000000;0.00000000;0.00000000;0.00000000;0.00000000;0.00000000;
71650077;40.2;25.7;0;0;0;24.6;0.04;0;0;0;0;0;0;0;0;0;0;0;0;0;36;0;0;71650020;0;0;0;0;0.83;378.875;0;0.05;0;0;0;1;-1;0;0;0;0;0;0;0;0;0;-1;0.00000000;0.00000000;0.00000000;0.00000000;0.00000000;0.00000000;0.00000000;
71650139;40.2;25.7;0;0;0;24.6;0.04;0;0;0;0;0;0;0;0;0;0;0;0;0;36;0;0;71650107;0;0;0;0;0.835;381.145;0;0.04;0;0;0;1;-1;0;0;0;0;0;0;0;0;0;-1;0.00000000;0.00000000;0.00000000;0.00000000;0.00000000;0.00000000;0.00000000;
71650209;40.3;25.7;0;0;0;24.6;0.04;0;0;0;0;0;0;0;0;0;0;0;0;0;36;0;0;71650171;0;0;0;0;0.845;385.64;0;0.06;0;0;0;1;-1;0;0;0;0;0;0;0;0;0;-1;0.00000000;0.00000000;0.00000000;0.00000000;0.00000000;0.00000000;0.00000000;
71650295;40.3;25.7;0;0;0;24.6;0.04;0;0;0;0;0;0;0;0;0;0;0;0;0;36;0;0;71650241;0;0;0;0;0.823;375.444;0;0.04;0;0;0;1;-1;0;0;0;0;0;0;0;0;0;-1;0.00000000;0.00000000;0.00000000;0.00000000;0.00000000;0.00000000;0.00000000;
71650358;40.2;25.7;0;0;0;24.6;0.04;0;0;0;0;0;0;0;0;0;0;0;0;0;36;0;0;71650326;0;0;0;0;0.823;375.444;0;0.02;0;0;0;1;-1;0;0;0;0;0;0;0;0;0;-1;0.00000000;0.00000000;0.00000000;0.00000000;0.00000000;0.00000000;0.00000000;
71650421;40.2;25.7;0;0;0;24.6;0.04;0;0;0;0;0;0;0;0;0;0;0;0;0;36;0;0;71650389;0;0;0;0;0.833;380.012;0;0.05;0;0;0;1;-1;0;0;0;0;0;0;0;0;0;-1;0.00000000;0.00000000;0.00000000;0.00000000;0.00000000;0.00000000;0.00000000;
71650483;40.3;25.7;0;0;0;24.6;0.04;0;0;0;0;0;0;0;0;0;0;0;0;0;36;0;0;71650452;0;0;0;0;0.84;383.4;0;0.05;0;0;0;1;-1;0;0;0;0;0;0;0;0;0;-1;0.00000000;0.00000000;0.00000000;0.00000000;0.00000000;0.00000000;0.00000000;
71650577;40.3;25.7;0;0;0;24.6;0.04;0;0;0;0;0;0;0;0;0;0;0;0;0;36;0;0;71650518;0;0;0;0;0.83;378.875;0;0.03;0;0;0;1;-1;0;0;0;0;0;0;0;0;0;-1;0.00000000;0.00000000;0.00000000;0.00000000;0.00000000;0.00000000;0.00000000;
71650639;40.3;25.7;0;0;0;24.6;0.04;0;0;0;0;0;0;0;0;0;0;0;0;0;36;0;0;71650607;0;0;0;0;0.83;378.875;0;0.04;0;0;0;1;-1;0;0;0;0;0;0;0;0;0;-1;0.00000000;0.00000000;0.00000000;0.00000000;0.00000000;0.00000000;0.00000000;
71650702;40.3;25.8;0;0;0;24.6;0.04;0;0;0;0;0;0;0;0;0;0;0;0;0;36;0;0;71650677;0;0;0;0;0.838;382.275;0;0.05;0;0;0;1;-1;0;0;0;0;0;0;0;0;0;-1;0.00000000;0.00000000;0.00000000;0.00000000;0.00000000;0.00000000;0.00000000;
71650764;40.3;25.7;0;0;0;24.6;0.04;0;0;0;0;0;0;0;0;0;0;0;0;0;36;0;0;71650733;0;0;0;0;0.823;375.444;0;0.04;0;0;0;1;-1;0;0;0;0;0;0;0;0;0;-1;0.00000000;0.00000000;0.00000000;0.00000000;0.00000000;0.00000000;0.00000000;
71650858;40.3;25.7;0;0;0;24.6;0.04;0;0;0;0;0;0;0;0;0;0;0;0;0;36;0;0;71650799;0;0;0;0;0.823;375.444;0;0.04;0;0;0;1;-1;0;0;0;0;0;0;0;0;0;-1;0.00000000;0.00000000;0.00000000;0.00000000;0.00000000;0.00000000;0.00000000;
71650921;40.3;25.7;0;0;0;24.6;0.04;0;0;0;0;0;0;0;0;0;0;0;0;0;36;0;0;71650888;0;0;0;0;0.825;376.591;0;0.04;0;0;0;1;-1;0;0;0;0;0;0;0;0;0;-1;0.00000000;0.00000000;0.00000000;0.00000000;0.00000000;0.00000000;0.00000000;
71650983;40.3;25.7;0;0;0;24.6;0.04;0;0;0;0;0;0;0;0;0;0;0;0;0;36;0;0;71650952;0;0;0;0;0.83;378.875;0;0.03;0;0;0;1;-1;0;0;0;0;0;0;0;0;0;-1;0.00000000;0.00000000;0.00000000;0.00000000;0.00000000;0.00000000;0.00000000;
71651077;40.3;25.7;0;0;0;24.6;0.04;0;0;0;0;0;0;0;0;0;0;0;0;0;36;0;0;71651018;0;0;0;0;0.83;378.875;0;0.03;0;0;0;1;-1;0;0;0;0;0;0;0;0;0;-1;0.00000000;0.00000000;0.00000000;0.00000000;0.00000000;0.00000000;0.00000000;
71651139;40.3;25.7;0;0;0;24.6;0.04;0;0;0;0;0;0;0;0;0;0;0;0;0;36;0;0;71651107;0;0;0;0;0.833;380.012;0;0.03;0;0;0;1;-1;0;0;0;0;0;0;0;0;0;-1;0.00000000;0.00000000;0.00000000;0.00000000;0.00000000;0.00000000;0.00000000;
71651202;40.3;25.7;0;0;0;24.6;0.04;0;0;0;0;0;0;0;0;0;0;0;0;0;36;0;0;71651171;0;0;0;0;0.83;378.875;0;0.06;0;0;0;1;-1;0;0;0;0;0;0;0;0;0;-1;0.00000000;0.00000000;0.00000000;0.00000000;0.00000000;0.00000000;0.00000000;
71651264;40.3;25.7;0;0;0;24.6;0.04;0;0;0;0;0;0;0;0;0;0;0;0;0;36;0;0;71651233;0;0;0;0;0.83;378.875;0;0.04;0;0;0;1;-1;0;0;0;0;0;0;0;0;0;-1;0.00000000;0.00000000;0.00000000;0.00000000;0.00000000;0.00000000;0.00000000;
71651358;40.3;25.7;0;0;0;24.6;0.04;0;0;0;0;0;0;0;0;0;0;0;0;0;36;0;0;71651298;0;0;0;0;0.833;380.012;0;0.05;0;0;0;1;-1;0;0;0;0;0;0;0;0;0;-1;0.00000000;0.00000000;0.00000000;0.00000000;0.00000000;0.00000000;0.00000000;
71651421;40.2;25.7;0;0;0;24.6;0.04;0;0;0;0;0;0;0;0;0;0;0;0;0;36;0;0;71651388;0;0;0;0;0.835;381.145;0;0.03;0;0;0;1;-1;0;0;0;0;0;0;0;0;0;-1;0.00000000;0.00000000;0.00000000;0.00000000;0.00000000;0.00000000;0.00000000;
71651483;40.3;25.7;0;0;0;24.6;0.04;0;0;0;0;0;0;0;0;0;0;0;0;0;36;0;0;71651452;0;0;0;0;0.845;385.64;0;0.03;0;0;0;1;-1;0;0;0;0;0;0;0;0;0;-1;0.00000000;0.00000000;0.00000000;0.00000000;0.00000000;0.00000000;0.00000000;
71651577;40.2;25.7;0;0;0;24.6;0.04;0;0;0;0;0;0;0;0;0;0;0;0;0;36;0;0;71651521;0;0;0;0;0.83;378.875;0;0.06;0;0;0;1;-1;0;0;0;0;0;0;0;0;0;-1;0.00000000;0.00000000;0.00000000;0.00000000;0.00000000;0.00000000;0.00000000;
71651639;40.3;25.7;0;0;0;24.6;0.04;0;0;0;0;0;0;0;0;0;0;0;0;0;36;0;0;71651607;0;0;0;0;0.828;377.735;0;0.05;0;0;0;1;-1;0;0;0;0;0;0;0;0;0;-1;0.00000000;0.00000000;0.00000000;0.00000000;0.00000000;0.00000000;0.00000000;
71651702;40.4;25.7;0;0;0;24.6;0.04;0;0;0;0;0;0;0;0;0;0;0;0;0;36;0;0;71651671;0;0;0;0;0.83;378.875;0;0.02;0;0;0;1;-1;0;0;0;0;0;0;0;0;0;-1;0.00000000;0.00000000;0.00000000;0.00000000;0.00000000;0.00000000;0.00000000;
71651764;40.3;25.7;0;0;0;24.6;0.04;0;0;0;0;0;0;0;0;0;0;0;0;0;36;0;0;71651733;0;0;0;0;0.83;378.875;0;0.07;0;0;0;1;-1;0;0;0;0;0;0;0;0;0;-1;0.00000000;0.00000000;0.00000000;0.00000000;0.00000000;0.00000000;0.00000000;
71651858;40.2;25.7;0;0;0;24.6;0.04;0;0;0;0;0;0;0;0;0;0;0;0;0;36;0;0;71651798;0;0;0;0;0.825;376.591;0;0.03;0;0;0;1;-1;0;0;0;0;0;0;0;0;0;-1;0.00000000;0.00000000;0.00000000;0.00000000;0.00000000;0.00000000;0.00000000;
71651921;40.3;25.7;0;0;0;24.6;0.04;0;0;0;0;0;0;0;0;0;0;0;0;0;36;0;0;71651888;0;0;0;0;0.828;377.735;0;0.03;0;0;0;1;-1;0;0;0;0;0;0;0;0;0;-1;0.00000000;0.00000000;0.00000000;0.00000000;0.00000000;0.00000000;0.00000000;
71651983;40.3;25.7;0;0;0;24.6;0.04;0;0;0;0;0;0;0;0;0;0;0;0;0;36;0;0;71651958;0;0;0;0;0.83;378.875;0;0.04;0;0;0;1;-1;0;0;0;0;0;0;0;0;0;-1;0.00000000;0.00000000;0.00000000;0.00000000;0.00000000;0.00000000;0.00000000;
71652077;40.2;25.7;0;0;0;24.6;0.04;0;0;0;0;0;0;0;0;0;0;0;0;0;36;0;0;71652019;0;0;0;0;0.823;375.444;0;0.03;0;0;0;1;-1;0;0;0;0;0;0;0;0;0;-1;0.00000000;0.00000000;0.00000000;0.00000000;0.00000000;0.00000000;0.00000000;
71652139;40.3;25.7;0;0;0;24.6;0.04;0;0;0;0;0;0;0;0;0;0;0;0;0;36;0;0;71652107;0;0;0;0;0.828;377.735;0;0.04;0;0;0;1;-1;0;0;0;0;0;0;0;0;0;-1;0.00000000;0.00000000;0.00000000;0.00000000;0.00000000;0.00000000;0.00000000;
71652202;40.2;25.7;0;0;0;24.6;0.04;0;0;0;0;0;0;0;0;0;0;0;0;0;36;0;0;71652170;0;0;0;0;0.835;381.145;0;0.04;0;0;0;1;-1;0;0;0;0;0;0;0;0;0;-1;0.00000000;0.00000000;0.00000000;0.00000000;0.00000000;0.00000000;0.00000000;
71652264;40.3;25.7;0;0;0;24.6;0.04;0;0;0;0;0;0;0;0;0;0;0;0;0;36;0;0;71652233;0;0;0;0;0.833;380.012;0;0.05;0;0;0;1;-1;0;0;0;0;0;0;0;0;0;-1;0.00000000;0.00000000;0.00000000;0.00000000;0.00000000;0.00000000;0.00000000;
71652358;40.3;25.7;0;0;0;24.6;0.04;0;0;0;0;0;0;0;0;0;0;0;0;0;36;0;0;71652302;0;0;0;0;0.833;380.012;0;0.04;0;0;0;1;-1;0;0;0;0;0;0;0;0;0;-1;0.00000000;0.00000000;0.00000000;0.00000000;0.00000000;0.00000000;0.00000000;
71652421;40.3;25.7;0;0;0;24.6;0.04;0;0;0;0;0;0;0;0;0;0;0;0;0;36;0;0;71652388;0;0;0;0;0.823;375.444;0;0.05;0;0;0;1;-1;0;0;0;0;0;0;0;0;0;-1;0.00000000;0.00000000;0.00000000;0.00000000;0.00000000;0.00000000;0.00000000;
71652483;40.3;25.7;0;0;0;24.6;0.04;0;0;0;0;0;0;0;0;0;0;0;0;0;36;0;0;71652452;0;0;0;0;0.818;373.141;0;0.03;0;0;0;1;-1;0;0;0;0;0;0;0;0;0;-1;0.00000000;0.00000000;0.00000000;0.00000000;0.00000000;0.00000000;0.00000000;
71652577;40.3;25.7;0;0;0;24.6;0.04;0;0;0;0;0;0;0;0;0;0;0;0;0;36;0;0;71652518;0;0;0;0;0.828;377.735;0;0.04;0;0;0;1;-1;0;0;0;0;0;0;0;0;0;-1;0.00000000;0.00000000;0.00000000;0.00000000;0.00000000;0.00000000;0.00000000;
71652639;40.3;25.7;0;0;0;24.6;0.04;0;0;0;0;0;0;0;0;0;0;0;0;0;36;0;0;71652607;0;0;0;0;0.833;380.012;0;0.05;0;0;0;1;-1;0;0;0;0;0;0;0;0;0;-1;0.00000000;0.00000000;0.00000000;0.00000000;0.00000000;0.00000000;0.00000000;
71652702;40.4;25.7;0;0;0;24.6;0.04;0;0;0;0;0;0;0;0;0;0;0;0;0;36;0;0;71652671;0;0;0;0;0.83;378.875;0;0.04;0;0;0;1;-1;0;0;0;0;0;0;0;0;0;-1;0.00000000;0.00000000;0.00000000;0.00000000;0.00000000;0.00000000;0.00000000;
71652764;40.3;25.7;0;0;0;24.6;0.04;0;0;0;0;0;0;0;0;0;0;0;0;0;36;0;0;71652733;0;0;0;0;0.823;375.444;0;0.04;0;0;0;1;-1;0;0;0;0;0;0;0;0;0;-1;0.00000000;0.00000000;0.00000000;0.00000000;0.00000000;0.00000000;0.00000000;
71652858;40.4;25.7;0;0;0;24.6;0.04;0;0;0;0;0;0;0;0;0;0;0;0;0;36;0;0;71652800;0;0;0;0;0.825;376.591;0;0.03;0;0;0;1;-1;0;0;0;0;0;0;0;0;0;-1;0.00000000;0.00000000;0.00000000;0.00000000;0.00000000;0.00000000;0.00000000;
71652921;40.2;25.7;0;0;0;24.6;0.04;0;0;0;0;0;0;0;0;0;0;0;0;0;36;0;0;71652895;0;0;0;0;0.825;376.591;0;0.05;0;0;0;1;-1;0;0;0;0;0;0;0;0;0;-1;0.00000000;0.00000000;0.00000000;0.00000000;0.00000000;0.00000000;0.00000000;
71652983;40.3;25.7;0;0;0;24.6;0.04;0;0;0;0;0;0;0;0;0;0;0;0;0;36;0;0;71652952;0;0;0;0;0.825;376.591;0;0.03;0;0;0;1;-1;0;0;0;0;0;0;0;0;0;-1;0.00000000;0.00000000;0.00000000;0.00000000;0.00000000;0.00000000;0.00000000;
71653077;40.3;25.7;0;0;0;24.6;0.04;0;0;0;0;0;0;0;0;0;0;0;0;0;36;0;0;71653020;0;0;0;0;0.82;374.294;0;0.03;0;0;0;1;-1;0;0;0;0;0;0;0;0;0;-1;0.00000000;0.00000000;0.00000000;0.00000000;0.00000000;0.00000000;0.00000000;
71653139;40.2;25.7;0;0;0;24.6;0.04;0;0;0;0;0;0;0;0;0;0;0;0;0;36;0;0;71653107;0;0;0;0;0.833;380.012;0;0.03;0;0;0;1;-1;0;0;0;0;0;0;0;0;0;-1;0.00000000;0.00000000;0.00000000;0.00000000;0.00000000;0.00000000;0.00000000;
71653202;40.3;25.7;0;0;0;24.6;0.04;0;0;0;0;0;0;0;0;0;0;0;0;0;36;0;0;71653171;0;0;0;0;0.833;380.012;0;0.05;0;0;0;1;-1;0;0;0;0;0;0;0;0;0;-1;0.00000000;0.00000000;0.00000000;0.00000000;0.00000000;0.00000000;0.00000000;
71653271;40.2;25.7;0;0;0;24.6;0.04;0;0;0;0;0;0;0;0;0;0;0;0;0;36;0;0;71653233;0;0;0;0;0.83;378.875;0;0.04;0;0;0;1;-1;0;0;0;0;0;0;0;0;0;-1;0.00000000;0.00000000;0.00000000;0.00000000;0.00000000;0.00000000;0.00000000;
71653358;40.3;25.7;0;0;0;24.6;0.04;0;0;0;0;0;0;0;0;0;0;0;0;0;36;0;0;71653299;0;0;0;0;0.83;378.875;0;0.03;0;0;0;1;-1;0;0;0;0;0;0;0;0;0;-1;0.00000000;0.00000000;0.00000000;0.00000000;0.00000000;0.00000000;0.00000000;
71653421;40.3;25.7;0;0;0;24.6;0.04;0;0;0;0;0;0;0;0;0;0;0;0;0;36;0;0;71653388;0;0;0;0;0.825;376.591;0;0.04;0;0;0;1;-1;0;0;0;0;0;0;0;0;0;-1;0.00000000;0.00000000;0.00000000;0.00000000;0.00000000;0.00000000;0.00000000;
71653483;40.3;25.7;0;0;0;24.6;0.04;0;0;0;0;0;0;0;0;0;0;0;0;0;36;0;0;71653452;0;0;0;0;0.835;381.145;0;0.04;0;0;0;1;-1;0;0;0;0;0;0;0;0;0;-1;0.00000000;0.00000000;0.00000000;0.00000000;0.00000000;0.00000000;0.00000000;
71653577;40.2;25.7;0;0;0;24.6;0.04;0;0;0;0;0;0;0;0;0;0;0;0;0;36;0;0;71653521;0;0;0;0;0.828;377.735;0;0.05;0;0;0;1;-1;0;0;0;0;0;0;0;0;0;-1;0.00000000;0.00000000;0.00000000;0.00000000;0.00000000;0.00000000;0.00000000;
71653640;40.2;25.7;0;0;0;24.6;0.04;0;0;0;0;0;0;0;0;0;0;0;0;0;36;0;0;71653607;0;0;0;0;0.825;376.591;0;0.04;0;0;0;1;-1;0;0;0;0;0;0;0;0;0;-1;0.00000000;0.00000000;0.00000000;0.00000000;0.00000000;0.00000000;0.00000000;
71653702;40.4;25.8;0;0;0;24.6;0.04;0;0;0;0;0;0;0;0;0;0;0;0;0;36;0;0;71653670;0;0;0;0;0.825;376.591;0;0.04;0;0;0;1;-1;0;0;0;0;0;0;0;0;0;-1;0.00000000;0.00000000;0.00000000;0.00000000;0.00000000;0.00000000;0.00000000;
71653771;40.3;25.7;0;0;0;24.6;0.04;0;0;0;0;0;0;0;0;0;0;0;0;0;36;0;0;71653733;0;0;0;0;0.823;375.444;0;0.04;0;0;0;1;-1;0;0;0;0;0;0;0;0;0;-1;0.00000000;0.00000000;0.00000000;0.00000000;0.00000000;0.00000000;0.00000000;
71653858;40.2;25.8;0;0;0;24.6;0.04;0;0;0;0;0;0;0;0;0;0;0;0;0;36;0;0;71653801;0;0;0;0;0.83;378.875;0;0.03;0;0;0;1;-1;0;0;0;0;0;0;0;0;0;-1;0.00000000;0.00000000;0.00000000;0.00000000;0.00000000;0.00000000;0.00000000;
71653921;40.3;25.7;0;0;0;24.6;0.04;0;0;0;0;0;0;0;0;0;0;0;0;0;36;0;0;71653888;0;0;0;0;0.83;378.875;0;0.03;0;0;0;1;-1;0;0;0;0;0;0;0;0;0;-1;0.00000000;0.00000000;0.00000000;0.00000000;0.00000000;0.00000000;0.00000000;
71653983;40.3;25.7;0;0;0;24.6;0.04;0;0;0;0;0;0;0;0;0;0;0;0;0;36;0;0;71653952;0;0;0;0;0.82;374.294;0;0.04;0;0;0;1;-1;0;0;0;0;0;0;0;0;0;-1;0.00000000;0.00000000;0.00000000;0.00000000;0.00000000;0.00000000;0.00000000;
71654077;40.2;25.7;0;0;0;24.6;0.04;0;0;0;0;0;0;0;0;0;0;0;0;0;36;0;0;71654021;0;0;0;0;0.823;375.444;0;0.03;0;0;0;1;-1;0;0;0;0;0;0;0;0;0;-1;0.00000000;0.00000000;0.00000000;0.00000000;0.00000000;0.00000000;0.00000000;
71654139;40.2;25.7;0;0;0;24.6;0.04;0;0;0;0;0;0;0;0;0;0;0;0;0;36;0;0;71654107;0;0;0;0;0.823;375.444;0;0.04;0;0;0;1;-1;0;0;0;0;0;0;0;0;0;-1;0.00000000;0.00000000;0.00000000;0.00000000;0.00000000;0.00000000;0.00000000;
71654202;40.3;25.7;0;0;0;24.6;0.04;0;0;0;0;0;0;0;0;0;0;0;0;0;36;0;0;71654177;0;0;0;0;0.825;376.591;0;0.05;0;0;0;1;-1;0;0;0;0;0;0;0;0;0;-1;0.00000000;0.00000000;0.00000000;0.00000000;0.00000000;0.00000000;0.00000000;
71654264;40.3;25.7;0;0;0;24.6;0.04;0;0;0;0;0;0;0;0;0;0;0;0;0;36;0;0;71654233;0;0;0;0;0.828;377.735;0;0.04;0;0;0;1;-1;0;0;0;0;0;0;0;0;0;-1;0.00000000;0.00000000;0.00000000;0.00000000;0.00000000;0.00000000;0.00000000;
71654358;40.3;25.7;0;0;0;24.6;0.04;0;0;0;0;0;0;0;0;0;0;0;0;0;36;0;0;71654301;0;0;0;0;0.833;380.012;0;0.03;0;0;0;1;-1;0;0;0;0;0;0;0;0;0;-1;0.00000000;0.00000000;0.00000000;0.00000000;0.00000000;0.00000000;0.00000000;
71654421;40.3;25.7;0;0;0;24.6;0.04;0;0;0;0;0;0;0;0;0;0;0;0;0;36;0;0;71654388;0;0;0;0;0.835;381.145;0;0.03;0;0;0;1;-1;0;0;0;0;0;0;0;0;0;-1;0.00000000;0.00000000;0.00000000;0.00000000;0.00000000;0.00000000;0.00000000;
71654483;40.3;25.7;0;0;0;24.6;0.04;0;0;0;0;0;0;0;0;0;0;0;0;0;36;0;0;71654452;0;0;0;0;0.855;390.071;0;0.04;0;0;0;1;-1;0;0;0;0;0;0;0;0;0;-1;0.00000000;0.00000000;0.00000000;0.00000000;0.00000000;0.00000000;0.00000000;
71654577;40.3;25.7;0;0;0;24.6;0.04;0;0;0;0;0;0;0;0;0;0;0;0;0;36;0;0;71654521;0;0;0;0;0.823;375.444;0;0.06;0;0;0;1;-1;0;0;0;0;0;0;0;0;0;-1;0.00000000;0.00000000;0.00000000;0.00000000;0.00000000;0.00000000;0.00000000;
71654640;40.3;25.7;0;0;0;24.6;0.04;0;0;0;0;0;0;0;0;0;0;0;0;0;36;0;0;71654613;0;0;0;0;0.833;380.012;0;0.05;0;0;0;1;-1;0;0;0;0;0;0;0;0;0;-1;0.00000000;0.00000000;0.00000000;0.00000000;0.00000000;0.00000000;0.00000000;
71654702;40.3;25.7;0;0;0;24.6;0.04;0;0;0;0;0;0;0;0;0;0;0;0;0;36;0;0;71654671;0;0;0;0;0.828;377.735;0;0.04;0;0;0;1;-1;0;0;0;0;0;0;0;0;0;-1;0.00000000;0.00000000;0.00000000;0.00000000;0.00000000;0.00000000;0.00000000;
71654764;40.3;25.7;0;0;0;24.6;0.04;0;0;0;0;0;0;0;0;0;0;0;0;0;36;0;0;71654733;0;0;0;0;0.825;376.591;0;0.05;0;0;0;1;-1;0;0;0;0;0;0;0;0;0;-1;0.00000000;0.00000000;0.00000000;0.00000000;0.00000000;0.00000000;0.00000000;
71654858;40.2;25.7;0;0;0;24.6;0.04;0;0;0;0;0;0;0;0;0;0;0;0;0;36;0;0;71654799;0;0;0;0;0.835;381.145;0;0.03;0;0;0;1;-1;0;0;0;0;0;0;0;0;0;-1;0.00000000;0.00000000;0.00000000;0.00000000;0.00000000;0.00000000;0.00000000;
71654921;40.2;25.7;0;0;0;24.6;0.04;0;0;0;0;0;0;0;0;0;0;0;0;0;36;0;0;71654888;0;0;0;0;0.838;382.275;0;0.04;0;0;0;1;-1;0;0;0;0;0;0;0;0;0;-1;0.00000000;0.00000000;0.00000000;0.00000000;0.00000000;0.00000000;0.00000000;
71654983;40.3;25.7;0;0;0;24.6;0.04;0;0;0;0;0;0;0;0;0;0;0;0;0;36;0;0;71654952;0;0;0;0;0.823;375.444;0;0.04;0;0;0;1;-1;0;0;0;0;0;0;0;0;0;-1;0.00000000;0.00000000;0.00000000;0.00000000;0.00000000;0.00000000;0.00000000;
71655077;40.3;25.7;0;0;0;24.6;0.04;0;0;0;0;0;0;0;0;0;0;0;0;0;36;0;0;71655019;0;0;0;0;0.82;374.294;0;0.03;0;0;0;1;-1;0;0;0;0;0;0;0;0;0;-1;0.00000000;0.00000000;0.00000000;0.00000000;0.00000000;0.00000000;0.00000000;
71655139;40.3;25.7;0;0;0;24.6;0.04;0;0;0;0;0;0;0;0;0;0;0;0;0;36;0;0;71655107;0;0;0;0;0.82;374.294;0;0.04;0;0;0;1;-1;0;0;0;0;0;0;0;0;0;-1;0.00000000;0.00000000;0.00000000;0.00000000;0.00000000;0.00000000;0.00000000;
71655202;40.3;25.7;0;0;0;24.6;0.04;0;0;0;0;0;0;0;0;0;0;0;0;0;36;0;0;71655171;0;0;0;0;0.833;380.012;0;0.04;0;0;0;1;-1;0;0;0;0;0;0;0;0;0;-1;0.00000000;0.00000000;0.00000000;0.00000000;0.00000000;0.00000000;0.00000000;
71655265;40.3;25.7;0;0;0;24.6;0.04;0;0;0;0;0;0;0;0;0;0;0;0;0;36;0;0;71655233;0;0;0;0;0.835;381.145;0;0.04;0;0;0;1;-1;0;0;0;0;0;0;0;0;0;-1;0.00000000;0.00000000;0.00000000;0.00000000;0.00000000;0.00000000;0.00000000;
71655358;40.2;25.7;0;0;0;24.6;0.04;0;0;0;0;0;0;0;0;0;0;0;0;0;36;0;0;71655302;0;0;0;0;0.83;378.875;0;0.03;0;0;0;1;-1;0;0;0;0;0;0;0;0;0;-1;0.00000000;0.00000000;0.00000000;0.00000000;0.00000000;0.00000000;0.00000000;
71655421;40.3;25.7;0;0;0;24.6;0.04;0;0;0;0;0;0;0;0;0;0;0;0;0;36;0;0;71655388;0;0;0;0;0.828;377.735;0;0.04;0;0;0;1;-1;0;0;0;0;0;0;0;0;0;-1;0.00000000;0.00000000;0.00000000;0.00000000;0.00000000;0.00000000;0.00000000;
71655483;40.3;25.7;0;0;0;24.6;0.04;0;0;0;0;0;0;0;0;0;0;0;0;0;36;0;0;71655452;0;0;0;0;0.838;382.275;0;0.04;0;0;0;1;-1;0;0;0;0;0;0;0;0;0;-1;0.00000000;0.00000000;0.00000000;0.00000000;0.00000000;0.00000000;0.00000000;
71655577;40.3;25.7;0;0;0;24.6;0.04;0;0;0;0;0;0;0;0;0;0;0;0;0;36;0;0;71655516;0;0;0;0;0.828;377.735;0;0.02;0;0;0;1;-1;0;0;0;0;0;0;0;0;0;-1;0.00000000;0.00000000;0.00000000;0.00000000;0.00000000;0.00000000;0.00000000;
71655640;40.3;25.7;0;0;0;24.6;0.04;0;0;0;0;0;0;0;0;0;0;0;0;0;36;0;0;71655607;0;0;0;0;0.84;383.4;0;0.03;0;0;0;1;-1;0;0;0;0;0;0;0;0;0;-1;0.00000000;0.00000000;0.00000000;0.00000000;0.00000000;0.00000000;0.00000000;
71655702;40.3;25.7;0;0;0;24.6;0.04;0;0;0;0;0;0;0;0;0;0;0;0;0;36;0;0;71655671;0;0;0;0;0.825;376.591;0;0.03;0;0;0;1;-1;0;0;0;0;0;0;0;0;0;-1;0.00000000;0.00000000;0.00000000;0.00000000;0.00000000;0.00000000;0.00000000;
71655764;40.3;25.7;0;0;0;24.6;0.04;0;0;0;0;0;0;0;0;0;0;0;0;0;36;0;0;71655733;0;0;0;0;0.83;378.875;0;0.05;0;0;0;1;-1;0;0;0;0;0;0;0;0;0;-1;0.00000000;0.00000000;0.00000000;0.00000000;0.00000000;0.00000000;0.00000000;
71655858;40.3;25.7;0;0;0;24.6;0.04;0;0;0;0;0;0;0;0;0;0;0;0;0;36;0;0;71655800;0;0;0;0;0.833;380.012;0;0.03;0;0;0;1;-1;0;0;0;0;0;0;0;0;0;-1;0.00000000;0.00000000;0.00000000;0.00000000;0.00000000;0.00000000;0.00000000;
71655921;40.3;25.7;0;0;0;24.6;0.04;0;0;0;0;0;0;0;0;0;0;0;0;0;36;0;0;71655888;0;0;0;0;0.83;378.875;0;0.04;0;0;0;1;-1;0;0;0;0;0;0;0;0;0;-1;0.00000000;0.00000000;0.00000000;0.00000000;0.00000000;0.00000000;0.00000000;
71655983;40.2;25.7;0;0;0;24.6;0.04;0;0;0;0;0;0;0;0;0;0;0;0;0;36;0;0;71655952;0;0;0;0;0.82;374.294;0;0.03;0;0;0;1;-1;0;0;0;0;0;0;0;0;0;-1;0.00000000;0.00000000;0.00000000;0.00000000;0.00000000;0.00000000;0.00000000;
71656077;40.3;25.7;0;0;0;24.6;0.04;0;0;0;0;0;0;0;0;0;0;0;0;0;36;0;0;71656020;0;0;0;0;0.828;377.735;0;0.04;0;0;0;1;-1;0;0;0;0;0;0;0;0;0;-1;0.00000000;0.00000000;0.00000000;0.00000000;0.00000000;0.00000000;0.00000000;
71656139;40.3;25.7;0;0;0;24.6;0.04;0;0;0;0;0;0;0;0;0;0;0;0;0;36;0;0;71656107;0;0;0;0;0.83;378.875;0;0.03;0;0;0;1;-1;0;0;0;0;0;0;0;0;0;-1;0.00000000;0.00000000;0.00000000;0.00000000;0.00000000;0.00000000;0.00000000;
71656202;40.3;25.7;0;0;0;24.6;0.04;0;0;0;0;0;0;0;0;0;0;0;0;0;36;0;0;71656171;0;0;0;0;0.835;381.145;0;0.04;0;0;0;1;-1;0;0;0;0;0;0;0;0;0;-1;0.00000000;0.00000000;0.00000000;0.00000000;0.00000000;0.00000000;0.00000000;
71656264;40.3;25.7;0;0;0;24.6;0.04;0;0;0;0;0;0;0;0;0;0;0;0;0;36;0;0;71656240;0;0;0;0;0.82;374.294;0;0.04;0;0;0;1;-1;0;0;0;0;0;0;0;0;0;-1;0.00000000;0.00000000;0.00000000;0.00000000;0.00000000;0.00000000;0.00000000;
71656358;40.3;25.7;0;0;0;24.6;0.04;0;0;0;0;0;0;0;0;0;0;0;0;0;36;0;0;71656299;0;0;0;0;0.828;377.735;0;0.03;0;0;0;1;-1;0;0;0;0;0;0;0;0;0;-1;0.00000000;0.00000000;0.00000000;0.00000000;0.00000000;0.00000000;0.00000000;
71656421;40.3;25.7;0;0;0;24.6;0.04;0;0;0;0;0;0;0;0;0;0;0;0;0;36;0;0;71656388;0;0;0;0;0.833;380.012;0;0.04;0;0;0;1;-1;0;0;0;0;0;0;0;0;0;-1;0.00000000;0.00000000;0.00000000;0.00000000;0.00000000;0.00000000;0.00000000;
71656483;40.3;25.7;0;0;0;24.6;0.04;0;0;0;0;0;0;0;0;0;0;0;0;0;36;0;0;71656452;0;0;0;0;0.835;381.145;0;0.03;0;0;0;1;-1;0;0;0;0;0;0;0;0;0;-1;0.00000000;0.00000000;0.00000000;0.00000000;0.00000000;0.00000000;0.00000000;
71656577;40.2;25.7;0;0;0;24.6;0.04;0;0;0;0;0;0;0;0;0;0;0;0;0;36;0;0;71656519;0;0;0;0;0.823;375.444;0;0.03;0;0;0;1;-1;0;0;0;0;0;0;0;0;0;-1;0.00000000;0.00000000;0.00000000;0.00000000;0.00000000;0.00000000;0.00000000;
71656639;40.3;25.7;0;0;0;24.6;0.04;0;0;0;0;0;0;0;0;0;0;0;0;0;36;0;0;71656607;0;0;0;0;0.825;376.591;0;0.05;0;0;0;1;-1;0;0;0;0;0;0;0;0;0;-1;0.00000000;0.00000000;0.00000000;0.00000000;0.00000000;0.00000000;0.00000000;
71656702;40.3;25.7;0;0;0;24.6;0.04;0;0;0;0;0;0;0;0;0;0;0;0;0;36;0;0;71656671;0;0;0;0;0.828;377.735;0;0.03;0;0;0;1;-1;0;0;0;0;0;0;0;0;0;-1;0.00000000;0.00000000;0.00000000;0.00000000;0.00000000;0.00000000;0.00000000;
71656793;40.2;25.7;0;0;0;24.6;0.04;0;0;0;0;0;0;0;0;0;0;0;0;0;36;0;0;71656733;0;0;0;0;0.833;380.012;0;0.05;0;0;0;1;-1;0;0;0;0;0;0;0;0;0;-1;0.00000000;0.00000000;0.00000000;0.00000000;0.00000000;0.00000000;0.00000000;
71656889;40.3;25.7;0;0;0;24.6;0.04;0;0;0;0;0;0;0;0;0;0;0;0;0;36;0;0;71656797;0;0;0;0;0.833;380.012;0;0.04;0;0;0;1;-1;0;0;0;0;0;0;0;0;0;-1;0.00000000;0.00000000;0.00000000;0.00000000;0.00000000;0.00000000;0.00000000;
71656983;40.3;25.7;0;0;0;24.6;0.04;0;0;0;0;0;0;0;0;0;0;0;0;0;36;0;0;71656923;0;0;0;0;0.828;377.735;0;0.06;0;0;0;1;-1;0;0;0;0;0;0;0;0;0;-1;0.00000000;0.00000000;0.00000000;0.00000000;0.00000000;0.00000000;0.00000000;
71657076;40.3;25.7;0;0;0;24.6;0.04;0;0;0;0;0;0;0;0;0;0;0;0;0;36;0;0;71657025;0;0;0;0;0.835;381.145;0;0.05;0;0;0;1;-1;0;0;0;0;0;0;0;0;0;-1;0.00000000;0.00000000;0.00000000;0.00000000;0.00000000;0.00000000;0.00000000;
71657146;40.2;25.7;0;0;0;24.6;0.04;0;0;0;0;0;0;0;0;0;0;0;0;0;36;0;0;71657107;0;0;0;0;0.835;381.145;0;0.02;0;0;0;1;-1;0;0;0;0;0;0;0;0;0;-1;0.00000000;0.00000000;0.00000000;0.00000000;0.00000000;0.00000000;0.00000000;
71657233;40.3;25.7;0;0;0;24.6;0.04;0;0;0;0;0;0;0;0;0;0;0;0;0;36;0;0;71657170;0;0;0;0;0.838;382.275;0;0.04;0;0;0;1;-1;0;0;0;0;0;0;0;0;0;-1;0.00000000;0.00000000;0.00000000;0.00000000;0.00000000;0.00000000;0.00000000;
71657295;40.3;25.7;0;0;0;24.6;0.04;0;0;0;0;0;0;0;0;0;0;0;0;0;36;0;0;71657263;0;0;0;0;0.823;375.444;0;0.04;0;0;0;1;-1;0;0;0;0;0;0;0;0;0;-1;0.00000000;0.00000000;0.00000000;0.00000000;0.00000000;0.00000000;0.00000000;
71657358;40.2;25.7;0;0;0;24.6;0.04;0;0;0;0;0;0;0;0;0;0;0;0;0;36;0;0;71657327;0;0;0;0;0.838;382.275;0;0.04;0;0;0;1;-1;0;0;0;0;0;0;0;0;0;-1;0.00000000;0.00000000;0.00000000;0.00000000;0.00000000;0.00000000;0.00000000;
71657420;40.2;25.7;0;0;0;24.6;0.04;0;0;0;0;0;0;0;0;0;0;0;0;0;36;0;0;71657389;0;0;0;0;0.835;381.145;0;0.03;0;0;0;1;-1;0;0;0;0;0;0;0;0;0;-1;0.00000000;0.00000000;0.00000000;0.00000000;0.00000000;0.00000000;0.00000000;
71657483;40.3;25.7;0;0;0;24.6;0.04;0;0;0;0;0;0;0;0;0;0;0;0;0;36;0;0;71657452;0;0;0;0;0.833;380.012;0;0.05;0;0;0;1;-1;0;0;0;0;0;0;0;0;0;-1;0.00000000;0.00000000;0.00000000;0.00000000;0.00000000;0.00000000;0.00000000;
71657546;40.3;25.7;0;0;0;24.6;0.04;0;0;0;0;0;0;0;0;0;0;0;0;0;36;0;0;71657521;0;0;0;0;0.828;377.735;0;0.03;0;0;0;1;-1;0;0;0;0;0;0;0;0;0;-1;0.00000000;0.00000000;0.00000000;0.00000000;0.00000000;0.00000000;0.00000000;
71657608;40.3;25.7;0;0;0;24.6;0.04;0;0;0;0;0;0;0;0;0;0;0;0;0;36;0;0;71657577;0;0;0;0;0.838;382.275;0;0.03;0;0;0;1;-1;0;0;0;0;0;0;0;0;0;-1;0.00000000;0.00000000;0.00000000;0.00000000;0.00000000;0.00000000;0.00000000;
71657670;40.2;25.7;0;0;0;24.6;0.04;0;0;0;0;0;0;0;0;0;0;0;0;0;36;0;0;71657639;0;0;0;0;0.83;378.875;0;0.03;0;0;0;1;-1;0;0;0;0;0;0;0;0;0;-1;0.00000000;0.00000000;0.00000000;0.00000000;0.00000000;0.00000000;0.00000000;
71657733;40.2;25.7;0;0;0;24.6;0.04;0;0;0;0;0;0;0;0;0;0;0;0;0;36;0;0;71657702;0;0;0;0;0.833;380.012;0;0.04;0;0;0;1;-1;0;0;0;0;0;0;0;0;0;-1;0.00000000;0.00000000;0.00000000;0.00000000;0.00000000;0.00000000;0.00000000;
71657795;40.4;25.7;0;0;0;24.6;0.04;0;0;0;0;0;0;0;0;0;0;0;0;0;36;0;0;71657764;0;0;0;0;0.833;380.012;0;0.04;0;0;0;1;-1;0;0;0;0;0;0;0;0;0;-1;0.00000000;0.00000000;0.00000000;0.00000000;0.00000000;0.00000000;0.00000000;
71657858;40.3;25.7;0;0;0;24.6;0.04;0;0;0;0;0;0;0;0;0;0;0;0;0;36;0;0;71657827;0;0;0;0;0.828;377.735;0;0.04;0;0;0;1;-1;0;0;0;0;0;0;0;0;0;-1;0.00000000;0.00000000;0.00000000;0.00000000;0.00000000;0.00000000;0.00000000;
71657920;40.3;25.7;0;0;0;24.6;0.04;0;0;0;0;0;0;0;0;0;0;0;0;0;36;0;0;71657889;0;0;0;0;0.828;377.735;0;0.04;0;0;0;1;-1;0;0;0;0;0;0;0;0;0;-1;0.00000000;0.00000000;0.00000000;0.00000000;0.00000000;0.00000000;0.00000000;
71657983;40.2;25.7;0;0;0;24.6;0.04;0;0;0;0;0;0;0;0;0;0;0;0;0;36;0;0;71657952;0;0;0;0;0.823;375.444;0;0.03;0;0;0;1;-1;0;0;0;0;0;0;0;0;0;-1;0.00000000;0.00000000;0.00000000;0.00000000;0.00000000;0.00000000;0.00000000;
71658046;40.2;25.7;0;0;0;24.6;0.04;0;0;0;0;0;0;0;0;0;0;0;0;0;36;0;0;71658014;0;0;0;0;0.83;378.875;0;0.03;0;0;0;1;-1;0;0;0;0;0;0;0;0;0;-1;0.00000000;0.00000000;0.00000000;0.00000000;0.00000000;0.00000000;0.00000000;
71658108;40.3;25.7;0;0;0;24.6;0.04;0;0;0;0;0;0;0;0;0;0;0;0;0;36;0;0;71658077;0;0;0;0;0.833;380.012;0;0.03;0;0;0;1;-1;0;0;0;0;0;0;0;0;0;-1;0.00000000;0.00000000;0.00000000;0.00000000;0.00000000;0.00000000;0.00000000;
71658170;40.2;25.7;0;0;0;24.6;0.04;0;0;0;0;0;0;0;0;0;0;0;0;0;36;0;0;71658139;0;0;0;0;0.825;376.591;0;0.03;0;0;0;1;-1;0;0;0;0;0;0;0;0;0;-1;0.00000000;0.00000000;0.00000000;0.00000000;0.00000000;0.00000000;0.00000000;
71658233;40.3;25.7;0;0;0;24.6;0.04;0;0;0;0;0;0;0;0;0;0;0;0;0;36;0;0;71658208;0;0;0;0;0.83;378.875;0;0.04;0;0;0;1;-1;0;0;0;0;0;0;0;0;0;-1;0.00000000;0.00000000;0.00000000;0.00000000;0.00000000;0.00000000;0.00000000;
71658295;40.3;25.7;0;0;0;24.6;0.04;0;0;0;0;0;0;0;0;0;0;0;0;0;36;0;0;71658264;0;0;0;0;0.833;380.012;0;0.03;0;0;0;1;-1;0;0;0;0;0;0;0;0;0;-1;0.00000000;0.00000000;0.00000000;0.00000000;0.00000000;0.00000000;0.00000000;
71658358;40.3;25.7;0;0;0;24.6;0.04;0;0;0;0;0;0;0;0;0;0;0;0;0;36;0;0;71658327;0;0;0;0;0.83;378.875;0;0.07;0;0;0;1;-1;0;0;0;0;0;0;0;0;0;-1;0.00000000;0.00000000;0.00000000;0.00000000;0.00000000;0.00000000;0.00000000;
71658421;40.2;25.7;0;0;0;24.7;0.04;0;0;0;0;0;0;0;0;0;0;0;0;0;36;0;0;71658389;0;0;0;0;0.833;380.012;0;0.04;0;0;0;1;-1;0;0;0;0;0;0;0;0;0;-1;0.00000000;0.00000000;0.00000000;0.00000000;0.00000000;0.00000000;0.00000000;
71658483;40.3;25.7;0;0;0;24.6;0.04;0;0;0;0;0;0;0;0;0;0;0;0;0;36;0;0;71658452;0;0;0;0;0.828;377.735;0;0.04;0;0;0;1;-1;0;0;0;0;0;0;0;0;0;-1;0.00000000;0.00000000;0.00000000;0.00000000;0.00000000;0.00000000;0.00000000;
71658545;40.2;25.7;0;0;0;24.7;0.04;0;0;0;0;0;0;0;0;0;0;0;0;0;36;0;0;71658514;0;0;0;0;0.825;376.591;0;0.04;0;0;0;1;-1;0;0;0;0;0;0;0;0;0;-1;0.00000000;0.00000000;0.00000000;0.00000000;0.00000000;0.00000000;0.00000000;
71658608;40.3;25.7;0;0;0;24.6;0.04;0;0;0;0;0;0;0;0;0;0;0;0;0;36;0;0;71658577;0;0;0;0;0.825;376.591;0;0.03;0;0;0;1;-1;0;0;0;0;0;0;0;0;0;-1;0.00000000;0.00000000;0.00000000;0.00000000;0.00000000;0.00000000;0.00000000;
71658677;40.3;25.7;0;0;0;24.6;0.04;0;0;0;0;0;0;0;0;0;0;0;0;0;36;0;0;71658639;0;0;0;0;0.83;378.875;0;0.04;0;0;0;1;-1;0;0;0;0;0;0;0;0;0;-1;0.00000000;0.00000000;0.00000000;0.00000000;0.00000000;0.00000000;0.00000000;
71658733;40.3;25.7;0;0;0;24.6;0.04;0;0;0;0;0;0;0;0;0;0;0;0;0;36;0;0;71658702;0;0;0;0;0.843;384.522;0;0.04;0;0;0;1;-1;0;0;0;0;0;0;0;0;0;-1;0.00000000;0.00000000;0.00000000;0.00000000;0.00000000;0.00000000;0.00000000;
71658796;40.3;25.7;0;0;0;24.6;0.04;0;0;0;0;0;0;0;0;0;0;0;0;0;36;0;0;71658764;0;0;0;0;0.838;382.275;0;0.05;0;0;0;1;-1;0;0;0;0;0;0;0;0;0;-1;0.00000000;0.00000000;0.00000000;0.00000000;0.00000000;0.00000000;0.00000000;
71658858;40.3;25.7;0;0;0;24.6;0.04;0;0;0;0;0;0;0;0;0;0;0;0;0;36;0;0;71658827;0;0;0;0;0.828;377.735;0;0.04;0;0;0;1;-1;0;0;0;0;0;0;0;0;0;-1;0.00000000;0.00000000;0.00000000;0.00000000;0.00000000;0.00000000;0.00000000;
71658921;40.3;25.7;0;0;0;24.6;0.04;0;0;0;0;0;0;0;0;0;0;0;0;0;36;0;0;71658889;0;0;0;0;0.833;380.012;0;0.04;0;0;0;1;-1;0;0;0;0;0;0;0;0;0;-1;0.00000000;0.00000000;0.00000000;0.00000000;0.00000000;0.00000000;0.00000000;
71658983;40.2;25.7;0;0;0;24.6;0.04;0;0;0;0;0;0;0;0;0;0;0;0;0;36;0;0;71658958;0;0;0;0;0.825;376.591;0;0.03;0;0;0;1;-1;0;0;0;0;0;0;0;0;0;-1;0.00000000;0.00000000;0.00000000;0.00000000;0.00000000;0.00000000;0.00000000;
71659077;40.3;25.7;0;0;0;24.6;0.04;0;0;0;0;0;0;0;0;0;0;0;0;0;36;0;0;71659021;0;0;0;0;0.82;374.294;0;0.03;0;0;0;1;-1;0;0;0;0;0;0;0;0;0;-1;0.00000000;0.00000000;0.00000000;0.00000000;0.00000000;0.00000000;0.00000000;
71659139;40.3;25.7;0;0;0;24.7;0.04;0;0;0;0;0;0;0;0;0;0;0;0;0;36;0;0;71659107;0;0;0;0;0.838;382.275;0;0.03;0;0;0;1;-1;0;0;0;0;0;0;0;0;0;-1;0.00000000;0.00000000;0.00000000;0.00000000;0.00000000;0.00000000;0.00000000;
71659202;40.3;25.7;0;0;0;24.7;0.04;0;0;0;0;0;0;0;0;0;0;0;0;0;36;0;0;71659171;0;0;0;0;0.823;375.444;0;0.04;0;0;0;1;-1;0;0;0;0;0;0;0;0;0;-1;0.00000000;0.00000000;0.00000000;0.00000000;0.00000000;0.00000000;0.00000000;
71659264;40.3;25.7;0;0;0;24.7;0.04;0;0;0;0;0;0;0;0;0;0;0;0;0;36;0;0;71659233;0;0;0;0;0.838;382.275;0;0.04;0;0;0;1;-1;0;0;0;0;0;0;0;0;0;-1;0.00000000;0.00000000;0.00000000;0.00000000;0.00000000;0.00000000;0.00000000;
71659358;40.2;25.7;0;0;0;24.6;0.04;0;0;0;0;0;0;0;0;0;0;0;0;0;36;0;0;71659300;0;0;0;0;0.83;378.875;0;0.05;0;0;0;1;-1;0;0;0;0;0;0;0;0;0;-1;0.00000000;0.00000000;0.00000000;0.00000000;0.00000000;0.00000000;0.00000000;
71659421;40.3;25.7;0;0;0;24.6;0.04;0;0;0;0;0;0;0;0;0;0;0;0;0;36;0;0;71659388;0;0;0;0;0.808;368.498;0;0.04;0;0;0;1;-1;0;0;0;0;0;0;0;0;0;-1;0.00000000;0.00000000;0.00000000;0.00000000;0.00000000;0.00000000;0.00000000;
71659483;40.3;25.7;0;0;0;24.6;0.04;0;0;0;0;0;0;0;0;0;0;0;0;0;36;0;0;71659452;0;0;0;0;0.833;380.012;0;0.03;0;0;0;1;-1;0;0;0;0;0;0;0;0;0;-1;0.00000000;0.00000000;0.00000000;0.00000000;0.00000000;0.00000000;0.00000000;
71659577;40.2;25.7;0;0;0;24.7;0.04;0;0;0;0;0;0;0;0;0;0;0;0;0;36;0;0;71659519;0;0;0;0;0.828;377.735;0;0.04;0;0;0;1;-1;0;0;0;0;0;0;0;0;0;-1;0.00000000;0.00000000;0.00000000;0.00000000;0.00000000;0.00000000;0.00000000;
71659639;40.2;25.7;0;0;0;24.6;0.04;0;0;0;0;0;0;0;0;0;0;0;0;0;36;0;0;71659607;0;0;0;0;0.835;381.145;0;0.03;0;0;0;1;-1;0;0;0;0;0;0;0;0;0;-1;0.00000000;0.00000000;0.00000000;0.00000000;0.00000000;0.00000000;0.00000000;
71659702;40.3;25.7;0;0;0;24.7;0.04;0;0;0;0;0;0;0;0;0;0;0;0;0;36;0;0;71659671;0;0;0;0;0.828;377.735;0;0.04;0;0;0;1;-1;0;0;0;0;0;0;0;0;0;-1;0.00000000;0.00000000;0.00000000;0.00000000;0.00000000;0.00000000;0.00000000;
71659764;40.3;25.7;0;0;0;24.7;0.04;0;0;0;0;0;0;0;0;0;0;0;0;0;36;0;0;71659740;0;0;0;0;0.835;381.145;0;0.04;0;0;0;1;-1;0;0;0;0;0;0;0;0;0;-1;0.00000000;0.00000000;0.00000000;0.00000000;0.00000000;0.00000000;0.00000000;
71659858;40.3;25.7;0;0;0;24.7;0.04;0;0;0;0;0;0;0;0;0;0;0;0;0;36;0;0;71659800;0;0;0;0;0.828;377.735;0;0.04;0;0;0;1;-1;0;0;0;0;0;0;0;0;0;-1;0.00000000;0.00000000;0.00000000;0.00000000;0.00000000;0.00000000;0.00000000;
71659921;40.2;25.7;0;0;0;24.6;0.04;0;0;0;0;0;0;0;0;0;0;0;0;0;36;0;0;71659888;0;0;0;0;0.81;369.663;0;0.05;0;0;0;1;-1;0;0;0;0;0;0;0;0;0;-1;0.00000000;0.00000000;0.00000000;0.00000000;0.00000000;0.00000000;0.00000000;
71659983;40.3;25.6;0;0;0;24.7;0.04;0;0;0;0;0;0;0;0;0;0;0;0;0;36;0;0;71659952;0;0;0;0;0.83;378.875;0;0.04;0;0;0;1;-1;0;0;0;0;0;0;0;0;0;-1;0.00000000;0.00000000;0.00000000;0.00000000;0.00000000;0.00000000;0.00000000;
71660077;40.3;25.7;0;0;0;24.6;0.04;0;0;0;0;0;0;0;0;0;0;0;0;0;36;0;0;71660020;0;0;0;0;0.815;371.985;0;0.04;0;0;0;1;-1;0;0;0;0;0;0;0;0;0;-1;0.00000000;0.00000000;0.00000000;0.00000000;0.00000000;0.00000000;0.00000000;
71660140;40.3;25.7;0;0;0;24.7;0.04;0;0;0;0;0;0;0;0;0;0;0;0;0;36;0;0;71660107;0;0;0;0;0.828;377.735;0;0.05;0;0;0;1;-1;0;0;0;0;0;0;0;0;0;-1;0.00000000;0.00000000;0.00000000;0.00000000;0.00000000;0.00000000;0.00000000;
71660202;40.3;25.7;0;0;0;24.7;0.04;0;0;0;0;0;0;0;0;0;0;0;0;0;36;0;0;71660177;0;0;0;0;0.823;375.444;0;0.03;0;0;0;1;-1;0;0;0;0;0;0;0;0;0;-1;0.00000000;0.00000000;0.00000000;0.00000000;0.00000000;0.00000000;0.00000000;
71660264;40.4;25.7;0;0;0;24.7;0.04;0;0;0;0;0;0;0;0;0;0;0;0;0;36;0;0;71660233;0;0;0;0;0.825;376.591;0;0.05;0;0;0;1;-1;0;0;0;0;0;0;0;0;0;-1;0.00000000;0.00000000;0.00000000;0.00000000;0.00000000;0.00000000;0.00000000;
71660358;40.2;25.7;0;0;0;24.7;0.04;0;0;0;0;0;0;0;0;0;0;0;0;0;36;0;0;71660299;0;0;0;0;0.823;375.444;0;0.03;0;0;0;1;-1;0;0;0;0;0;0;0;0;0;-1;0.00000000;0.00000000;0.00000000;0.00000000;0.00000000;0.00000000;0.00000000;
71660421;40.3;25.7;0;0;0;24.7;0.04;0;0;0;0;0;0;0;0;0;0;0;0;0;36;0;0;71660388;0;0;0;0;0.835;381.145;0;0.04;0;0;0;1;-1;0;0;0;0;0;0;0;0;0;-1;0.00000000;0.00000000;0.00000000;0.00000000;0.00000000;0.00000000;0.00000000;
71660483;40.3;25.7;0;0;0;24.7;0.04;0;0;0;0;0;0;0;0;0;0;0;0;0;36;0;0;71660452;0;0;0;0;0.848;386.754;0;0.02;0;0;0;1;-1;0;0;0;0;0;0;0;0;0;-1;0.00000000;0.00000000;0.00000000;0.00000000;0.00000000;0.00000000;0.00000000;
71660577;40.2;25.7;0;0;0;24.7;0.04;0;0;0;0;0;0;0;0;0;0;0;0;0;36;0;0;71660521;0;0;0;0;0.828;377.735;0;0.03;0;0;0;1;-1;0;0;0;0;0;0;0;0;0;-1;0.00000000;0.00000000;0.00000000;0.00000000;0.00000000;0.00000000;0.00000000;
71660639;40.3;25.7;0;0;0;24.7;0.04;0;0;0;0;0;0;0;0;0;0;0;0;0;36;0;0;71660607;0;0;0;0;0.823;375.444;0;0.05;0;0;0;1;-1;0;0;0;0;0;0;0;0;0;-1;0.00000000;0.00000000;0.00000000;0.00000000;0.00000000;0.00000000;0.00000000;
71660702;40.3;25.7;0;0;0;24.7;0.04;0;0;0;0;0;0;0;0;0;0;0;0;0;36;0;0;71660671;0;0;0;0;0.835;381.145;0;0.04;0;0;0;1;-1;0;0;0;0;0;0;0;0;0;-1;0.00000000;0.00000000;0.00000000;0.00000000;0.00000000;0.00000000;0.00000000;
71660764;40.2;25.7;0;0;0;24.7;0.04;0;0;0;0;0;0;0;0;0;0;0;0;0;36;0;0;71660733;0;0;0;0;0.833;380.012;0;0.03;0;0;0;1;-1;0;0;0;0;0;0;0;0;0;-1;0.00000000;0.00000000;0.00000000;0.00000000;0.00000000;0.00000000;0.00000000;
71660858;40.3;25.7;0;0;0;24.7;0.04;0;0;0;0;0;0;0;0;0;0;0;0;0;36;0;0;71660802;0;0;0;0;0.83;378.875;0;0.04;0;0;0;1;-1;0;0;0;0;0;0;0;0;0;-1;0.00000000;0.00000000;0.00000000;0.00000000;0.00000000;0.00000000;0.00000000;
71660921;40.3;25.7;0;0;0;24.7;0.04;0;0;0;0;0;0;0;0;0;0;0;0;0;36;0;0;71660888;0;0;0;0;0.83;378.875;0;0.03;0;0;0;1;-1;0;0;0;0;0;0;0;0;0;-1;0.00000000;0.00000000;0.00000000;0.00000000;0.00000000;0.00000000;0.00000000;
71660983;40.2;25.7;0;0;0;24.7;0.04;0;0;0;0;0;0;0;0;0;0;0;0;0;36;0;0;71660952;0;0;0;0;0.835;381.145;0;0.03;0;0;0;1;-1;0;0;0;0;0;0;0;0;0;-1;0.00000000;0.00000000;0.00000000;0.00000000;0.00000000;0.00000000;0.00000000;
71661077;40.3;25.7;0;0;0;24.7;0.04;0;0;0;0;0;0;0;0;0;0;0;0;0;36;0;0;71661020;0;0;0;0;0.828;377.735;0;0.04;0;0;0;1;-1;0;0;0;0;0;0;0;0;0;-1;0.00000000;0.00000000;0.00000000;0.00000000;0.00000000;0.00000000;0.00000000;
71661139;40.2;25.6;0;0;0;24.7;0.04;0;0;0;0;0;0;0;0;0;0;0;0;0;36;0;0;71661107;0;0;0;0;0.828;377.735;0;0.04;0;0;0;1;-1;0;0;0;0;0;0;0;0;0;-1;0.00000000;0.00000000;0.00000000;0.00000000;0.00000000;0.00000000;0.00000000;
71661202;40.2;25.7;0;0;0;24.7;0.04;0;0;0;0;0;0;0;0;0;0;0;0;0;36;0;0;71661171;0;0;0;0;0.833;380.012;0;0.06;0;0;0;1;-1;0;0;0;0;0;0;0;0;0;-1;0.00000000;0.00000000;0.00000000;0.00000000;0.00000000;0.00000000;0.00000000;
71661264;40.3;25.7;0;0;0;24.7;0.04;0;0;0;0;0;0;0;0;0;0;0;0;0;36;0;0;71661233;0;0;0;0;0.823;375.444;0;0.05;0;0;0;1;-1;0;0;0;0;0;0;0;0;0;-1;0.00000000;0.00000000;0.00000000;0.00000000;0.00000000;0.00000000;0.00000000;
71661358;40.2;25.7;0;0;0;24.7;0.04;0;0;0;0;0;0;0;0;0;0;0;0;0;36;0;0;71661300;0;0;0;0;0.83;378.875;0;0.04;0;0;0;1;-1;0;0;0;0;0;0;0;0;0;-1;0.00000000;0.00000000;0.00000000;0.00000000;0.00000000;0.00000000;0.00000000;
71661421;40.2;25.7;0;0;0;24.7;0.04;0;0;0;0;0;0;0;0;0;0;0;0;0;36;0;0;71661388;0;0;0;0;0.828;377.735;0;0.05;0;0;0;1;-1;0;0;0;0;0;0;0;0;0;-1;0.00000000;0.00000000;0.00000000;0.00000000;0.00000000;0.00000000;0.00000000;
71661483;40.3;25.7;0;0;0;24.7;0.04;0;0;0;0;0;0;0;0;0;0;0;0;0;36;0;0;71661452;0;0;0;0;0.823;375.444;0;0.04;0;0;0;1;-1;0;0;0;0;0;0;0;0;0;-1;0.00000000;0.00000000;0.00000000;0.00000000;0.00000000;0.00000000;0.00000000;
71661577;40.3;25.7;0;0;0;24.7;0.04;0;0;0;0;0;0;0;0;0;0;0;0;0;36;0;0;71661521;0;0;0;0;0.838;382.275;0;0.04;0;0;0;1;-1;0;0;0;0;0;0;0;0;0;-1;0.00000000;0.00000000;0.00000000;0.00000000;0.00000000;0.00000000;0.00000000;
71661640;40.3;25.7;0;0;0;24.7;0.04;0;0;0;0;0;0;0;0;0;0;0;0;0;36;0;0;71661607;0;0;0;0;0.83;378.875;0;0.05;0;0;0;1;-1;0;0;0;0;0;0;0;0;0;-1;0.00000000;0.00000000;0.00000000;0.00000000;0.00000000;0.00000000;0.00000000;
71661702;40.4;25.7;0;0;0;24.7;0.04;0;0;0;0;0;0;0;0;0;0;0;0;0;36;0;0;71661677;0;0;0;0;0.823;375.444;0;0.05;0;0;0;1;-1;0;0;0;0;0;0;0;0;0;-1;0.00000000;0.00000000;0.00000000;0.00000000;0.00000000;0.00000000;0.00000000;
71661765;40.3;25.7;0;0;0;24.7;0.04;0;0;0;0;0;0;0;0;0;0;0;0;0;36;0;0;71661733;0;0;0;0;0.828;377.735;0;0.06;0;0;0;1;-1;0;0;0;0;0;0;0;0;0;-1;0.00000000;0.00000000;0.00000000;0.00000000;0.00000000;0.00000000;0.00000000;
71661858;40.2;25.7;0;0;0;24.7;0.04;0;0;0;0;0;0;0;0;0;0;0;0;0;36;0;0;71661800;0;0;0;0;0.848;386.754;0;0.05;0;0;0;1;-1;0;0;0;0;0;0;0;0;0;-1;0.00000000;0.00000000;0.00000000;0.00000000;0.00000000;0.00000000;0.00000000;
71661922;40.2;25.7;0;0;0;24.7;0.04;0;0;0;0;0;0;0;0;0;0;0;0;0;36;0;0;71661918;0;0;0;0;0.83;378.875;0;0.04;0;0;0;1;-1;0;0;0;0;0;0;0;0;0;-1;0.00000000;0.00000000;0.00000000;0.00000000;0.00000000;0.00000000;0.00000000;
71661983;40.2;25.6;0;0;0;24.7;0.04;0;0;0;0;0;0;0;0;0;0;0;0;0;36;0;0;71661918;0;0;0;0;0.83;378.875;0;0.04;0;0;0;1;-1;0;0;0;0;0;0;0;0;0;-1;0.00000000;0.00000000;0.00000000;0.00000000;0.00000000;0.00000000;0.00000000;
71662077;40.3;25.7;0;0;0;24.7;0.04;0;0;0;0;0;0;0;0;0;0;0;0;0;36;0;0;71662020;0;0;0;0;0.823;375.444;0;0.02;0;0;0;1;-1;0;0;0;0;0;0;0;0;0;-1;0.00000000;0.00000000;0.00000000;0.00000000;0.00000000;0.00000000;0.00000000;
71662140;40.3;25.6;0;0;0;24.7;0.04;0;0;0;0;0;0;0;0;0;0;0;0;0;36;0;0;71662107;0;0;0;0;0.833;380.012;0;0.03;0;0;0;1;-1;0;0;0;0;0;0;0;0;0;-1;0.00000000;0.00000000;0.00000000;0.00000000;0.00000000;0.00000000;0.00000000;
71662202;40.2;25.7;0;0;0;24.7;0.04;0;0;0;0;0;0;0;0;0;0;0;0;0;36;0;0;71662171;0;0;0;0;0.83;378.875;0;0.04;0;0;0;1;-1;0;0;0;0;0;0;0;0;0;-1;0.00000000;0.00000000;0.00000000;0.00000000;0.00000000;0.00000000;0.00000000;
71662271;40.3;25.7;0;0;0;24.7;0.04;0;0;0;0;0;0;0;0;0;0;0;0;0;36;0;0;71662233;0;0;0;0;0.823;375.444;0;0.04;0;0;0;1;-1;0;0;0;0;0;0;0;0;0;-1;0.00000000;0.00000000;0.00000000;0.00000000;0.00000000;0.00000000;0.00000000;
